{
    "count": 3903,
    "rows": [
        {
            "unidade": 2,
            "nomeUnidade": "AG 0002 PLANALTO, DF",
            "sr": 2639,
            "nomeSr": "SR 2639 BRASILIA NORTE, DF",
            "ibge": 5300108,
            "cidade": "Brasília",
            "uf": "DF",
            "regiao": "Centro-Oeste",
            "cep": "70070-110",
            "latitude": -15.798461033187008,
            "longitude": -47.881685751552354
        },
        {
            "unidade": 3,
            "nomeUnidade": "AG 0003 AEROPORTO PRESIDENTE JK, DF",
            "sr": 2637,
            "nomeSr": "SR 2637 BRASILIA SUL, DF",
            "ibge": 5300108,
            "cidade": "Brasília",
            "uf": "DF",
            "regiao": "Centro-Oeste",
            "cep": "71608-900",
            "latitude": -15.87022258984177,
            "longitude": -47.92099352904233
        },
        {
            "unidade": 4,
            "nomeUnidade": "AG 0004 BERNARDO SAYAO, DF",
            "sr": 2637,
            "nomeSr": "SR 2637 BRASILIA SUL, DF",
            "ibge": 5300108,
            "cidade": "Brasília",
            "uf": "DF",
            "regiao": "Centro-Oeste",
            "cep": "70331-515",
            "latitude": -15.80509026348259,
            "longitude": -47.897104975274495
        },
        {
            "unidade": 5,
            "nomeUnidade": "AG 0005 CONGRESSO, DF",
            "sr": 2639,
            "nomeSr": "SR 2639 BRASILIA NORTE, DF",
            "ibge": 5300108,
            "cidade": "Brasília",
            "uf": "DF",
            "regiao": "Centro-Oeste",
            "cep": "70160-900",
            "latitude": -15.802625,
            "longitude": -47.864904
        },
        {
            "unidade": 6,
            "nomeUnidade": "AG 0006 MEXICO, DF",
            "sr": 2637,
            "nomeSr": "SR 2637 BRASILIA SUL, DF",
            "ibge": 5300108,
            "cidade": "Brasília",
            "uf": "DF",
            "regiao": "Centro-Oeste",
            "cep": "70346-520",
            "latitude": -15.815595082961838,
            "longitude": -47.90236901923572
        },
        {
            "unidade": 7,
            "nomeUnidade": "AG 0007 JOSE SEABRA, DF",
            "sr": 2639,
            "nomeSr": "SR 2639 BRASILIA NORTE, DF",
            "ibge": 5300108,
            "cidade": "Brasília",
            "uf": "DF",
            "regiao": "Centro-Oeste",
            "cep": "70750-500",
            "latitude": -15.76152125761882,
            "longitude": -47.89118944933995
        },
        {
            "unidade": 8,
            "nomeUnidade": "AG 0008 TAGUATINGA, DF",
            "sr": 2637,
            "nomeSr": "SR 2637 BRASILIA SUL, DF",
            "ibge": 5300108,
            "cidade": "Brasília",
            "uf": "DF",
            "regiao": "Centro-Oeste",
            "cep": "72010-030",
            "latitude": -15.832240609819516,
            "longitude": -48.053796154696954
        },
        {
            "unidade": 9,
            "nomeUnidade": "AG 0009 ALMIRANTE SANDERSON DE QUEIROZ, DF",
            "sr": 2639,
            "nomeSr": "SR 2639 BRASILIA NORTE, DF",
            "ibge": 5300108,
            "cidade": "Brasília",
            "uf": "DF",
            "regiao": "Centro-Oeste",
            "cep": "70055-900",
            "latitude": -15.794317,
            "longitude": -47.870762
        },
        {
            "unidade": 10,
            "nomeUnidade": "AG 0010 105 SUDOESTE, DF",
            "sr": 2637,
            "nomeSr": "SR 2637 BRASILIA SUL, DF",
            "ibge": 5300108,
            "cidade": "Brasília",
            "uf": "DF",
            "regiao": "Centro-Oeste",
            "cep": "70670-432",
            "latitude": -15.8073569,
            "longitude": -47.9338167
        },
        {
            "unidade": 11,
            "nomeUnidade": "AG 0011 MONTESE, DF",
            "sr": 2639,
            "nomeSr": "SR 2639 BRASILIA NORTE, DF",
            "ibge": 5300108,
            "cidade": "Brasília",
            "uf": "DF",
            "regiao": "Centro-Oeste",
            "cep": "70630-901",
            "latitude": -15.773423,
            "longitude": -47.916233
        },
        {
            "unidade": 12,
            "nomeUnidade": "AG 0012 ANHANGUERA, GO",
            "sr": 2634,
            "nomeSr": "SR 2634 SUL DE GOIAS, GO",
            "ibge": 5208707,
            "cidade": "Goiânia",
            "uf": "GO",
            "regiao": "Centro-Oeste",
            "cep": "74043-011",
            "latitude": -16.6773221,
            "longitude": -49.2648078
        },
        {
            "unidade": 13,
            "nomeUnidade": "AG 0013 24 DE OUTUBRO, GO",
            "sr": 2634,
            "nomeSr": "SR 2634 SUL DE GOIAS, GO",
            "ibge": 5208707,
            "cidade": "Goiânia",
            "uf": "GO",
            "regiao": "Centro-Oeste",
            "cep": "74505-011",
            "latitude": -16.668830765364337,
            "longitude": -49.29099257117308
        },
        {
            "unidade": 14,
            "nomeUnidade": "AG 0014 ANAPOLIS, GO",
            "sr": 2635,
            "nomeSr": "SR 2635 NORTE DE GOIAS, GO",
            "ibge": 5201108,
            "cidade": "Anápolis",
            "uf": "GO",
            "regiao": "Centro-Oeste",
            "cep": "75024-100",
            "latitude": -16.32940594749752,
            "longitude": -48.9570677915927
        },
        {
            "unidade": 15,
            "nomeUnidade": "AG 0015 ITUMBIARA, GO",
            "sr": 2634,
            "nomeSr": "SR 2634 SUL DE GOIAS, GO",
            "ibge": 5211503,
            "cidade": "Itumbiara",
            "uf": "GO",
            "regiao": "Centro-Oeste",
            "cep": "75503-260",
            "latitude": -18.419980382460857,
            "longitude": -49.21669656213143
        },
        {
            "unidade": 16,
            "nomeUnidade": "AG 0016 PAIAGUAS, MT",
            "sr": 2628,
            "nomeSr": "SR 2628 MATO GROSSO, MT",
            "ibge": 5103403,
            "cidade": "Cuiabá",
            "uf": "MT",
            "regiao": "Centro-Oeste",
            "cep": "78005-500",
            "latitude": -15.5970188,
            "longitude": -56.0977729
        },
        {
            "unidade": 17,
            "nomeUnidade": "AG 0017 CENTRO CAMPO GRANDE, MS",
            "sr": 2629,
            "nomeSr": "SR 2629 MATO GROSSO DO SUL, MS",
            "ibge": 5002704,
            "cidade": "Campo Grande",
            "uf": "MS",
            "regiao": "Centro-Oeste",
            "cep": "79002-351",
            "latitude": -20.460047213209457,
            "longitude": -54.61657930318904
        },
        {
            "unidade": 18,
            "nomeUnidade": "AG 0018 CORUMBA, MS",
            "sr": 2629,
            "nomeSr": "SR 2629 MATO GROSSO DO SUL, MS",
            "ibge": 5003207,
            "cidade": "Corumbá",
            "uf": "MS",
            "regiao": "Centro-Oeste",
            "cep": "79330-070",
            "latitude": -19.0041,
            "longitude": -57.6551
        },
        {
            "unidade": 19,
            "nomeUnidade": "AG 0019 FAXINAL DOS GUEDES, SC",
            "sr": 2623,
            "nomeSr": "SR 2623 OESTE DE SANTA CATARINA, SC",
            "ibge": 4205308,
            "cidade": "Faxinal dos Guedes",
            "uf": "SC",
            "regiao": "Sul",
            "cep": "89694-000",
            "latitude": -26.853508980934766,
            "longitude": -52.261380140233534
        },
        {
            "unidade": 20,
            "nomeUnidade": "AG 0020 VITORIA-REGIA, AM",
            "sr": 2656,
            "nomeSr": "SR 2656 AMAZONAS, AM",
            "ibge": 1302603,
            "cidade": "Manaus",
            "uf": "AM",
            "regiao": "Norte",
            "cep": "69010-050",
            "latitude": -3.1339585468755367,
            "longitude": -60.023311278847885
        },
        {
            "unidade": 22,
            "nomeUnidade": "AG 0022 CIRIO, PA",
            "sr": 2653,
            "nomeSr": "SR 2653 PARA, PA",
            "ibge": 1501402,
            "cidade": "Belém",
            "uf": "PA",
            "regiao": "Norte",
            "cep": "66017-000",
            "latitude": -1.4530326,
            "longitude": -48.4953226999999
        },
        {
            "unidade": 23,
            "nomeUnidade": "AG 0023 ABAETETUBA, PA",
            "sr": 2653,
            "nomeSr": "SR 2653 PARA, PA",
            "ibge": 1500107,
            "cidade": "Abaetetuba",
            "uf": "PA",
            "regiao": "Norte",
            "cep": "68440-000",
            "latitude": -1.724919562161073,
            "longitude": -48.89010344205941
        },
        {
            "unidade": 24,
            "nomeUnidade": "AG 0024 BRAGANCA, PA",
            "sr": 2653,
            "nomeSr": "SR 2653 PARA, PA",
            "ibge": 1501709,
            "cidade": "Bragança",
            "uf": "PA",
            "regiao": "Norte",
            "cep": "68600-000",
            "latitude": -1.0578512,
            "longitude": -46.7636327
        },
        {
            "unidade": 25,
            "nomeUnidade": "AG 0025 CAPANEMA, PA",
            "sr": 2653,
            "nomeSr": "SR 2653 PARA, PA",
            "ibge": 1502202,
            "cidade": "Capanema",
            "uf": "PA",
            "regiao": "Norte",
            "cep": "68700-005",
            "latitude": -1.1924804372040203,
            "longitude": -47.17999539726105
        },
        {
            "unidade": 26,
            "nomeUnidade": "AG 0026 SANTAREM, PA",
            "sr": 2653,
            "nomeSr": "SR 2653 PARA, PA",
            "ibge": 1506807,
            "cidade": "Santarém",
            "uf": "PA",
            "regiao": "Norte",
            "cep": "68005-000",
            "latitude": -2.4165507,
            "longitude": -54.7139004
        },
        {
            "unidade": 27,
            "nomeUnidade": "AG 0027 GONCALVES DIAS, MA",
            "sr": 2654,
            "nomeSr": "SR 2654 SAO LUIS, MA",
            "ibge": 2111300,
            "cidade": "São Luís",
            "uf": "MA",
            "regiao": "Nordeste",
            "cep": "65020-590",
            "latitude": -2.5286853937733804,
            "longitude": -44.303196997079326
        },
        {
            "unidade": 28,
            "nomeUnidade": "AG 0028 CAXIAS, MA",
            "sr": 4217,
            "nomeSr": "SR 4217 IMPERATRIZ, MA",
            "ibge": 2103000,
            "cidade": "Caxias",
            "uf": "MA",
            "regiao": "Nordeste",
            "cep": "65602-010",
            "latitude": -4.8626504,
            "longitude": -43.3617104
        },
        {
            "unidade": 29,
            "nomeUnidade": "AG 0029 CONSELHEIRO SARAIVA, PI",
            "sr": 2655,
            "nomeSr": "SR 2655 PIAUI, PI",
            "ibge": 2211001,
            "cidade": "Teresina",
            "uf": "PI",
            "regiao": "Nordeste",
            "cep": "64000-140",
            "latitude": -5.0897514335391785,
            "longitude": -42.816013615396066
        },
        {
            "unidade": 30,
            "nomeUnidade": "AG 0030 PARNAIBA, PI",
            "sr": 2655,
            "nomeSr": "SR 2655 PIAUI, PI",
            "ibge": 2207702,
            "cidade": "Parnaíba",
            "uf": "PI",
            "regiao": "Nordeste",
            "cep": "64200-970",
            "latitude": -2.903213,
            "longitude": -41.778835
        },
        {
            "unidade": 31,
            "nomeUnidade": "AG 0031 IRACEMA, CE",
            "sr": 2650,
            "nomeSr": "SR 2650 CEARA, CE",
            "ibge": 2304400,
            "cidade": "Fortaleza",
            "uf": "CE",
            "regiao": "Nordeste",
            "cep": "60025-131",
            "latitude": -3.7318959141966754,
            "longitude": -38.52871864739835
        },
        {
            "unidade": 32,
            "nomeUnidade": "AG 0032 JUAZEIRO DO NORTE, CE",
            "sr": 2650,
            "nomeSr": "SR 2650 CEARA, CE",
            "ibge": 2307304,
            "cidade": "Juazeiro do Norte",
            "uf": "CE",
            "regiao": "Nordeste",
            "cep": "63010-222",
            "latitude": -7.202675349527733,
            "longitude": -39.31810742787738
        },
        {
            "unidade": 33,
            "nomeUnidade": "AG 0033 RIBEIRA, RN",
            "sr": 2640,
            "nomeSr": "SR 2640 RIO GRANDE DO NORTE, RN",
            "ibge": 2408102,
            "cidade": "Natal",
            "uf": "RN",
            "regiao": "Nordeste",
            "cep": "59025-280",
            "latitude": -5.781148263869064,
            "longitude": -35.20644338477855
        },
        {
            "unidade": 34,
            "nomeUnidade": "AG 0034 ALECRIM, RN",
            "sr": 2640,
            "nomeSr": "SR 2640 RIO GRANDE DO NORTE, RN",
            "ibge": 2408102,
            "cidade": "Natal",
            "uf": "RN",
            "regiao": "Nordeste",
            "cep": "59037-200",
            "latitude": -5.800012737545598,
            "longitude": -35.21643012466535
        },
        {
            "unidade": 35,
            "nomeUnidade": "AG 0035 POTIGUAR, RN",
            "sr": 2640,
            "nomeSr": "SR 2640 RIO GRANDE DO NORTE, RN",
            "ibge": 2408102,
            "cidade": "Natal",
            "uf": "RN",
            "regiao": "Nordeste",
            "cep": "59025-500",
            "latitude": -5.787183422736075,
            "longitude": -35.20592481315711
        },
        {
            "unidade": 36,
            "nomeUnidade": "AG 0036 CABO BRANCO, PB",
            "sr": 2641,
            "nomeSr": "SR 2641 JOAO PESSOA, PB",
            "ibge": 2507507,
            "cidade": "João Pessoa",
            "uf": "PB",
            "regiao": "Nordeste",
            "cep": "58010-770",
            "latitude": -7.118726233039296,
            "longitude": -34.88173608687185
        },
        {
            "unidade": 37,
            "nomeUnidade": "AG 0037 TRINCHEIRAS, PB",
            "sr": 2641,
            "nomeSr": "SR 2641 JOAO PESSOA, PB",
            "ibge": 2507507,
            "cidade": "João Pessoa",
            "uf": "PB",
            "regiao": "Nordeste",
            "cep": "58011-000",
            "latitude": -7.123557708957912,
            "longitude": -34.884451970184855
        },
        {
            "unidade": 38,
            "nomeUnidade": "AG 0038 BANANEIRAS, PB",
            "sr": 4220,
            "nomeSr": "SR 4220 CAMPINA GRANDE, PB",
            "ibge": 2501500,
            "cidade": "Bananeiras",
            "uf": "PB",
            "regiao": "Nordeste",
            "cep": "58220-000",
            "latitude": -6.7538415569351855,
            "longitude": -35.633824977639705
        },
        {
            "unidade": 39,
            "nomeUnidade": "AG 0039 CABEDELO, PB",
            "sr": 2641,
            "nomeSr": "SR 2641 JOAO PESSOA, PB",
            "ibge": 2503209,
            "cidade": "Cabedelo",
            "uf": "PB",
            "regiao": "Nordeste",
            "cep": "58103-194",
            "latitude": -6.984019322363669,
            "longitude": -34.82969184069872
        },
        {
            "unidade": 40,
            "nomeUnidade": "AG 0040 CAJAZEIRAS, PB",
            "sr": 4220,
            "nomeSr": "SR 4220 CAMPINA GRANDE, PB",
            "ibge": 2503704,
            "cidade": "Cajazeiras",
            "uf": "PB",
            "regiao": "Nordeste",
            "cep": "58900-000",
            "latitude": -6.8882742,
            "longitude": -38.5581723
        },
        {
            "unidade": 41,
            "nomeUnidade": "AG 0041 CAMPINA GRANDE, PB",
            "sr": 4220,
            "nomeSr": "SR 4220 CAMPINA GRANDE, PB",
            "ibge": 2504009,
            "cidade": "Campina Grande",
            "uf": "PB",
            "regiao": "Nordeste",
            "cep": "58400-025",
            "latitude": -7.215891023076013,
            "longitude": -35.88567586244103
        },
        {
            "unidade": 42,
            "nomeUnidade": "AG 0042 GUARABIRA, PB",
            "sr": 4220,
            "nomeSr": "SR 4220 CAMPINA GRANDE, PB",
            "ibge": 2506301,
            "cidade": "Guarabira",
            "uf": "PB",
            "regiao": "Nordeste",
            "cep": "58200-000",
            "latitude": -6.8483103,
            "longitude": -35.496043
        },
        {
            "unidade": 43,
            "nomeUnidade": "AG 0043 PATOS, PB",
            "sr": 4220,
            "nomeSr": "SR 4220 CAMPINA GRANDE, PB",
            "ibge": 2510808,
            "cidade": "Patos",
            "uf": "PB",
            "regiao": "Nordeste",
            "cep": "58700-070",
            "latitude": -7.028244739996794,
            "longitude": -37.28154560022886
        },
        {
            "unidade": 44,
            "nomeUnidade": "AG 0044 MAMANGUAPE, PB",
            "sr": 2641,
            "nomeSr": "SR 2641 JOAO PESSOA, PB",
            "ibge": 2508901,
            "cidade": "Mamanguape",
            "uf": "PB",
            "regiao": "Nordeste",
            "cep": "58280-000",
            "latitude": -6.839264628942333,
            "longitude": -35.12589799105609
        },
        {
            "unidade": 45,
            "nomeUnidade": "AG 0045 AV GUARARAPES, PE",
            "sr": 2642,
            "nomeSr": "SR 2642 RECIFE, PE",
            "ibge": 2611606,
            "cidade": "Recife",
            "uf": "PE",
            "regiao": "Nordeste",
            "cep": "50010-000",
            "latitude": -8.0637061,
            "longitude": -34.8789912999999
        },
        {
            "unidade": 46,
            "nomeUnidade": "AG 0046 AFOGADOS, PE",
            "sr": 2642,
            "nomeSr": "SR 2642 RECIFE, PE",
            "ibge": 2611606,
            "cidade": "Recife",
            "uf": "PE",
            "regiao": "Nordeste",
            "cep": "50770-000",
            "latitude": -8.0797911982308,
            "longitude": -34.904495875574604
        },
        {
            "unidade": 47,
            "nomeUnidade": "AG 0047 AEROPORTO RECIFE, PE",
            "sr": 2642,
            "nomeSr": "SR 2642 RECIFE, PE",
            "ibge": 2611606,
            "cidade": "Recife",
            "uf": "PE",
            "regiao": "Nordeste",
            "cep": "51210-001",
            "latitude": -8.13409560759973,
            "longitude": -34.91622723228615
        },
        {
            "unidade": 48,
            "nomeUnidade": "AG 0048 ENCRUZILHADA, PE",
            "sr": 2642,
            "nomeSr": "SR 2642 RECIFE, PE",
            "ibge": 2611606,
            "cidade": "Recife",
            "uf": "PE",
            "regiao": "Nordeste",
            "cep": "52030-060",
            "latitude": -8.037617118616396,
            "longitude": -34.89028909375066
        },
        {
            "unidade": 49,
            "nomeUnidade": "AG 0049 CASA AMARELA, PE",
            "sr": 2642,
            "nomeSr": "SR 2642 RECIFE, PE",
            "ibge": 2611606,
            "cidade": "Recife",
            "uf": "PE",
            "regiao": "Nordeste",
            "cep": "52070-200",
            "latitude": -8.02419285114345,
            "longitude": -34.91811886584121
        },
        {
            "unidade": 50,
            "nomeUnidade": "AG 0050 CAIS DO APOLO, PE",
            "sr": 2642,
            "nomeSr": "SR 2642 RECIFE, PE",
            "ibge": 2611606,
            "cidade": "Recife",
            "uf": "PE",
            "regiao": "Nordeste",
            "cep": "50030-030",
            "latitude": -8.064665341890016,
            "longitude": -34.874085075106386
        },
        {
            "unidade": 51,
            "nomeUnidade": "AG 0051 CARUARU, PE",
            "sr": 2642,
            "nomeSr": "SR 2642 RECIFE, PE",
            "ibge": 2604106,
            "cidade": "Caruaru",
            "uf": "PE",
            "regiao": "Nordeste",
            "cep": "55002-400",
            "latitude": -8.284564021180739,
            "longitude": -35.96842324721909
        },
        {
            "unidade": 52,
            "nomeUnidade": "AG 0052 GARANHUNS, PE",
            "sr": 2692,
            "nomeSr": "SR 2692 VALE DO SAO FRANCISCO, PE",
            "ibge": 2606002,
            "cidade": "Garanhuns",
            "uf": "PE",
            "regiao": "Nordeste",
            "cep": "55293-000",
            "latitude": -8.891328569401262,
            "longitude": -36.496543676349134
        },
        {
            "unidade": 53,
            "nomeUnidade": "AG 0053 LIMOEIRO, PE",
            "sr": 2642,
            "nomeSr": "SR 2642 RECIFE, PE",
            "ibge": 2608909,
            "cidade": "Limoeiro",
            "uf": "PE",
            "regiao": "Nordeste",
            "cep": "55700-000",
            "latitude": -7.87929,
            "longitude": -35.4543
        },
        {
            "unidade": 54,
            "nomeUnidade": "AG 0054 NAZARE DA MATA, PE",
            "sr": 2642,
            "nomeSr": "SR 2642 RECIFE, PE",
            "ibge": 2609501,
            "cidade": "Nazaré da Mata",
            "uf": "PE",
            "regiao": "Nordeste",
            "cep": "55800-000",
            "latitude": -7.7422405,
            "longitude": -35.22389565
        },
        {
            "unidade": 55,
            "nomeUnidade": "AG 0055 ROSA DA FONSECA, AL",
            "sr": 2645,
            "nomeSr": "SR 2645 ALAGOAS, AL",
            "ibge": 2704302,
            "cidade": "Maceió",
            "uf": "AL",
            "regiao": "Nordeste",
            "cep": "57020-090",
            "latitude": -9.659435585756192,
            "longitude": -35.739744797811696
        },
        {
            "unidade": 56,
            "nomeUnidade": "AG 0056 ARAPIRACA, AL",
            "sr": 2645,
            "nomeSr": "SR 2645 ALAGOAS, AL",
            "ibge": 2700300,
            "cidade": "Arapiraca",
            "uf": "AL",
            "regiao": "Nordeste",
            "cep": "57300-190",
            "latitude": -9.75222485308285,
            "longitude": -36.66004171606324
        },
        {
            "unidade": 57,
            "nomeUnidade": "AG 0057 PALMEIRA DOS INDIOS, AL",
            "sr": 2645,
            "nomeSr": "SR 2645 ALAGOAS, AL",
            "ibge": 2706307,
            "cidade": "Palmeira dos Índios",
            "uf": "AL",
            "regiao": "Nordeste",
            "cep": "57600-050",
            "latitude": -9.406524928418843,
            "longitude": -36.629537850282965
        },
        {
            "unidade": 58,
            "nomeUnidade": "AG 0058 PENEDO, AL",
            "sr": 2645,
            "nomeSr": "SR 2645 ALAGOAS, AL",
            "ibge": 2706703,
            "cidade": "Penedo",
            "uf": "AL",
            "regiao": "Nordeste",
            "cep": "57200-000",
            "latitude": -10.291834,
            "longitude": -36.5844621
        },
        {
            "unidade": 59,
            "nomeUnidade": "AG 0059 SERIGY, SE",
            "sr": 2646,
            "nomeSr": "SR 2646 SERGIPE, SE",
            "ibge": 2800308,
            "cidade": "Aracaju",
            "uf": "SE",
            "regiao": "Nordeste",
            "cep": "49010-130",
            "latitude": -10.909485531170452,
            "longitude": -37.04930128179408
        },
        {
            "unidade": 60,
            "nomeUnidade": "AG 0060 MARCELO MONTALVAO, SE",
            "sr": 2646,
            "nomeSr": "SR 2646 SERGIPE, SE",
            "ibge": 2802106,
            "cidade": "Estância",
            "uf": "SE",
            "regiao": "Nordeste",
            "cep": "49200-000",
            "latitude": -11.272695406444388,
            "longitude": -37.44006173410024
        },
        {
            "unidade": 61,
            "nomeUnidade": "AG 0061 DAS MERCES, BA",
            "sr": 2647,
            "nomeSr": "SR 2647 SALVADOR, BA",
            "ibge": 2927408,
            "cidade": "Salvador",
            "uf": "BA",
            "regiao": "Nordeste",
            "cep": "40060-000",
            "latitude": -12.984898,
            "longitude": -38.5179395
        },
        {
            "unidade": 62,
            "nomeUnidade": "AG 0062 CALCADA, BA",
            "sr": 2647,
            "nomeSr": "SR 2647 SALVADOR, BA",
            "ibge": 2927408,
            "cidade": "Salvador",
            "uf": "BA",
            "regiao": "Nordeste",
            "cep": "40445-001",
            "latitude": -12.9436673,
            "longitude": -38.5016219
        },
        {
            "unidade": 63,
            "nomeUnidade": "AG 0063 COMERCIO, BA",
            "sr": 2647,
            "nomeSr": "SR 2647 SALVADOR, BA",
            "ibge": 2927408,
            "cidade": "Salvador",
            "uf": "BA",
            "regiao": "Nordeste",
            "cep": "40010-020",
            "latitude": -12.9720288,
            "longitude": -38.5140558
        },
        {
            "unidade": 64,
            "nomeUnidade": "AG 0064 BAIXA DOS SAPATEIROS, BA",
            "sr": 2647,
            "nomeSr": "SR 2647 SALVADOR, BA",
            "ibge": 2927408,
            "cidade": "Salvador",
            "uf": "BA",
            "regiao": "Nordeste",
            "cep": "40025-000",
            "latitude": -12.9762417,
            "longitude": -38.5090547
        },
        {
            "unidade": 65,
            "nomeUnidade": "AG 0065 ALAGOINHAS, BA",
            "sr": 2648,
            "nomeSr": "SR 2648 NORTE E SUL DA BAHIA, BA",
            "ibge": 2900702,
            "cidade": "Alagoinhas",
            "uf": "BA",
            "regiao": "Nordeste",
            "cep": "48000-173",
            "latitude": -12.139642766144675,
            "longitude": -38.42480384592597
        },
        {
            "unidade": 66,
            "nomeUnidade": "AG 0066 AMARGOSA, BA",
            "sr": 2648,
            "nomeSr": "SR 2648 NORTE E SUL DA BAHIA, BA",
            "ibge": 2901007,
            "cidade": "Amargosa",
            "uf": "BA",
            "regiao": "Nordeste",
            "cep": "45300-000",
            "latitude": -13.03046193582498,
            "longitude": -39.60371875504599
        },
        {
            "unidade": 67,
            "nomeUnidade": "AG 0067 CACHOEIRA, BA",
            "sr": 2648,
            "nomeSr": "SR 2648 NORTE E SUL DA BAHIA, BA",
            "ibge": 2904902,
            "cidade": "Cachoeira",
            "uf": "BA",
            "regiao": "Nordeste",
            "cep": "44300-000",
            "latitude": -12.597538476615805,
            "longitude": -38.96756111075695
        },
        {
            "unidade": 68,
            "nomeUnidade": "AG 0068 FEIRA DE SANTANA, BA",
            "sr": 2648,
            "nomeSr": "SR 2648 NORTE E SUL DA BAHIA, BA",
            "ibge": 2910800,
            "cidade": "Feira de Santana",
            "uf": "BA",
            "regiao": "Nordeste",
            "cep": "44002-296",
            "latitude": -12.252555593175586,
            "longitude": -38.96689284538535
        },
        {
            "unidade": 69,
            "nomeUnidade": "AG 0069 ILHEUS, BA",
            "sr": 2648,
            "nomeSr": "SR 2648 NORTE E SUL DA BAHIA, BA",
            "ibge": 2913606,
            "cidade": "Ilhéus",
            "uf": "BA",
            "regiao": "Nordeste",
            "cep": "45653-000",
            "latitude": -14.798295273233688,
            "longitude": -39.03540981778249
        },
        {
            "unidade": 70,
            "nomeUnidade": "AG 0070 ITABUNA, BA",
            "sr": 2648,
            "nomeSr": "SR 2648 NORTE E SUL DA BAHIA, BA",
            "ibge": 2914802,
            "cidade": "Itabuna",
            "uf": "BA",
            "regiao": "Nordeste",
            "cep": "45600-087",
            "latitude": -14.79472557700748,
            "longitude": -39.276915753127575
        },
        {
            "unidade": 71,
            "nomeUnidade": "AG 0071 JEQUIE, BA",
            "sr": 2648,
            "nomeSr": "SR 2648 NORTE E SUL DA BAHIA, BA",
            "ibge": 2918001,
            "cidade": "Jequié",
            "uf": "BA",
            "regiao": "Nordeste",
            "cep": "45200-902",
            "latitude": -13.859237594716031,
            "longitude": -40.08183155035883
        },
        {
            "unidade": 72,
            "nomeUnidade": "AG 0072 NAZARE, BA",
            "sr": 2648,
            "nomeSr": "SR 2648 NORTE E SUL DA BAHIA, BA",
            "ibge": 2922508,
            "cidade": "Nazaré",
            "uf": "BA",
            "regiao": "Nordeste",
            "cep": "44400-000",
            "latitude": -13.0335314,
            "longitude": -39.0088612
        },
        {
            "unidade": 73,
            "nomeUnidade": "AG 0073 SANTO AMARO, BA",
            "sr": 2648,
            "nomeSr": "SR 2648 NORTE E SUL DA BAHIA, BA",
            "ibge": 2928604,
            "cidade": "Santo Amaro",
            "uf": "BA",
            "regiao": "Nordeste",
            "cep": "44200-000",
            "latitude": -12.5514888,
            "longitude": -38.7059751
        },
        {
            "unidade": 74,
            "nomeUnidade": "AG 0074 SAO GONCALO DOS CAMPOS, BA",
            "sr": 2648,
            "nomeSr": "SR 2648 NORTE E SUL DA BAHIA, BA",
            "ibge": 2929305,
            "cidade": "São Gonçalo dos Campos",
            "uf": "BA",
            "regiao": "Nordeste",
            "cep": "44330-000",
            "latitude": -12.435466338951356,
            "longitude": -38.95063676000604
        },
        {
            "unidade": 75,
            "nomeUnidade": "AG 0075 EUNAPOLIS, BA",
            "sr": 2648,
            "nomeSr": "SR 2648 NORTE E SUL DA BAHIA, BA",
            "ibge": 2910727,
            "cidade": "Eunápolis",
            "uf": "BA",
            "regiao": "Nordeste",
            "cep": "45820-081",
            "latitude": -16.3747213800635,
            "longitude": -39.58525583022813
        },
        {
            "unidade": 76,
            "nomeUnidade": "AG 0076 SENHOR DO BONFIM, BA",
            "sr": 2648,
            "nomeSr": "SR 2648 NORTE E SUL DA BAHIA, BA",
            "ibge": 2930105,
            "cidade": "Senhor do Bonfim",
            "uf": "BA",
            "regiao": "Nordeste",
            "cep": "48970-000",
            "latitude": -10.4629428,
            "longitude": -40.1891256
        },
        {
            "unidade": 77,
            "nomeUnidade": "AG 0077 SERRINHA, BA",
            "sr": 2648,
            "nomeSr": "SR 2648 NORTE E SUL DA BAHIA, BA",
            "ibge": 2930501,
            "cidade": "Serrinha",
            "uf": "BA",
            "regiao": "Nordeste",
            "cep": "48700-000",
            "latitude": -11.662045111484519,
            "longitude": -39.008555689286645
        },
        {
            "unidade": 78,
            "nomeUnidade": "AG 0078 NOSSA SENHORA DO AMPARO, BA",
            "sr": 2648,
            "nomeSr": "SR 2648 NORTE E SUL DA BAHIA, BA",
            "ibge": 2932903,
            "cidade": "Valença",
            "uf": "BA",
            "regiao": "Nordeste",
            "cep": "45400-000",
            "latitude": -13.372656245742544,
            "longitude": -39.07289835460369
        },
        {
            "unidade": 79,
            "nomeUnidade": "AG 0079 VITORIA DA CONQUISTA, BA",
            "sr": 2648,
            "nomeSr": "SR 2648 NORTE E SUL DA BAHIA, BA",
            "ibge": 2933307,
            "cidade": "Vitória da Conquista",
            "uf": "BA",
            "regiao": "Nordeste",
            "cep": "45000-904",
            "latitude": -14.85209735,
            "longitude": -40.83904565
        },
        {
            "unidade": 80,
            "nomeUnidade": "AG 0080 JUAZEIRO, BA",
            "sr": 2692,
            "nomeSr": "SR 2692 VALE DO SAO FRANCISCO, PE",
            "ibge": 2918407,
            "cidade": "Juazeiro",
            "uf": "BA",
            "regiao": "Nordeste",
            "cep": "48903-400",
            "latitude": -9.4106142,
            "longitude": -40.5040773
        },
        {
            "unidade": 81,
            "nomeUnidade": "AG 0081 TUPINAMBAS, MG",
            "sr": 2602,
            "nomeSr": "SR 2602 BELO HORIZONTE LESTE, MG",
            "ibge": 3106200,
            "cidade": "Belo Horizonte",
            "uf": "MG",
            "regiao": "Sudeste",
            "cep": "30120-070",
            "latitude": -19.917656096605327,
            "longitude": -43.9387691031432
        },
        {
            "unidade": 82,
            "nomeUnidade": "AG 0082 BARREIRO, MG",
            "sr": 2606,
            "nomeSr": "SR 2606 BELO HORIZONTE OESTE, MG",
            "ibge": 3106200,
            "cidade": "Belo Horizonte",
            "uf": "MG",
            "regiao": "Sudeste",
            "cep": "30640-070",
            "latitude": -19.97370282919508,
            "longitude": -44.019063069272164
        },
        {
            "unidade": 83,
            "nomeUnidade": "AG 0083 BARRO PRETO, MG",
            "sr": 2606,
            "nomeSr": "SR 2606 BELO HORIZONTE OESTE, MG",
            "ibge": 3106200,
            "cidade": "Belo Horizonte",
            "uf": "MG",
            "regiao": "Sudeste",
            "cep": "30190-003",
            "latitude": -19.9211169999999,
            "longitude": -43.9510348999999
        },
        {
            "unidade": 84,
            "nomeUnidade": "AG 0084 SECULO, MG",
            "sr": 2602,
            "nomeSr": "SR 2602 BELO HORIZONTE LESTE, MG",
            "ibge": 3106200,
            "cidade": "Belo Horizonte",
            "uf": "MG",
            "regiao": "Sudeste",
            "cep": "30120-060",
            "latitude": -19.919233986820398,
            "longitude": -43.93765519510304
        },
        {
            "unidade": 85,
            "nomeUnidade": "AG 0085 INCONFIDENCIA, MG",
            "sr": 2602,
            "nomeSr": "SR 2602 BELO HORIZONTE LESTE, MG",
            "ibge": 3106200,
            "cidade": "Belo Horizonte",
            "uf": "MG",
            "regiao": "Sudeste",
            "cep": "30170-120",
            "latitude": -19.920223254667498,
            "longitude": -43.941806651483134
        },
        {
            "unidade": 86,
            "nomeUnidade": "AG 0086 FLORESTA, MG",
            "sr": 2602,
            "nomeSr": "SR 2602 BELO HORIZONTE LESTE, MG",
            "ibge": 3106200,
            "cidade": "Belo Horizonte",
            "uf": "MG",
            "regiao": "Sudeste",
            "cep": "30110-008",
            "latitude": -19.913765673049387,
            "longitude": -43.92918461339349
        },
        {
            "unidade": 87,
            "nomeUnidade": "AG 0087 HORTO FLORESTAL, MG",
            "sr": 2602,
            "nomeSr": "SR 2602 BELO HORIZONTE LESTE, MG",
            "ibge": 3106200,
            "cidade": "Belo Horizonte",
            "uf": "MG",
            "regiao": "Sudeste",
            "cep": "31010-514",
            "latitude": -19.9122611,
            "longitude": -43.917506
        },
        {
            "unidade": 89,
            "nomeUnidade": "AG 0089 PADRE EUSTAQUIO, MG",
            "sr": 2606,
            "nomeSr": "SR 2606 BELO HORIZONTE OESTE, MG",
            "ibge": 3106200,
            "cidade": "Belo Horizonte",
            "uf": "MG",
            "regiao": "Sudeste",
            "cep": "30720-100",
            "latitude": -19.915110297625173,
            "longitude": -43.97699307244878
        },
        {
            "unidade": 90,
            "nomeUnidade": "AG 0090 IMPERADOR, MG",
            "sr": 2606,
            "nomeSr": "SR 2606 BELO HORIZONTE OESTE, MG",
            "ibge": 3106200,
            "cidade": "Belo Horizonte",
            "uf": "MG",
            "regiao": "Sudeste",
            "cep": "31210-442",
            "latitude": -19.911040336597008,
            "longitude": -43.955318019740595
        },
        {
            "unidade": 91,
            "nomeUnidade": "AG 0091 SAVASSI, MG",
            "sr": 2602,
            "nomeSr": "SR 2602 BELO HORIZONTE LESTE, MG",
            "ibge": 3106200,
            "cidade": "Belo Horizonte",
            "uf": "MG",
            "regiao": "Sudeste",
            "cep": "30140-140",
            "latitude": -19.93707092226699,
            "longitude": -43.93647175727406
        },
        {
            "unidade": 92,
            "nomeUnidade": "AG 0092 RENASCENCA, MG",
            "sr": 2602,
            "nomeSr": "SR 2602 BELO HORIZONTE LESTE, MG",
            "ibge": 3106200,
            "cidade": "Belo Horizonte",
            "uf": "MG",
            "regiao": "Sudeste",
            "cep": "31140-003",
            "latitude": -19.899718026036098,
            "longitude": -43.92839768116876
        },
        {
            "unidade": 93,
            "nomeUnidade": "AG 0093 SANTA EFIGENIA, MG",
            "sr": 2602,
            "nomeSr": "SR 2602 BELO HORIZONTE LESTE, MG",
            "ibge": 3106200,
            "cidade": "Belo Horizonte",
            "uf": "MG",
            "regiao": "Sudeste",
            "cep": "30150-330",
            "latitude": -19.9245995,
            "longitude": -43.9236794
        },
        {
            "unidade": 94,
            "nomeUnidade": "AG 0094 GUAJAJARAS, MG",
            "sr": 2602,
            "nomeSr": "SR 2602 BELO HORIZONTE LESTE, MG",
            "ibge": 3106200,
            "cidade": "Belo Horizonte",
            "uf": "MG",
            "regiao": "Sudeste",
            "cep": "30140-061",
            "latitude": -19.926889900124564,
            "longitude": -43.937459769451735
        },
        {
            "unidade": 95,
            "nomeUnidade": "AG 0095 ALFENAS, MG",
            "sr": 2603,
            "nomeSr": "SR 2603 SUDESTE DE MINAS, MG",
            "ibge": 3101607,
            "cidade": "Alfenas",
            "uf": "MG",
            "regiao": "Sudeste",
            "cep": "37130-073",
            "latitude": -21.42983040597888,
            "longitude": -45.947583833824076
        },
        {
            "unidade": 96,
            "nomeUnidade": "AG 0096 ARAGUARI, MG",
            "sr": 2690,
            "nomeSr": "SR 2690 TRIANGULO MINEIRO, MG",
            "ibge": 3103504,
            "cidade": "Araguari",
            "uf": "MG",
            "regiao": "Sudeste",
            "cep": "38440-238",
            "latitude": -18.65233155145713,
            "longitude": -48.192410757123255
        },
        {
            "unidade": 97,
            "nomeUnidade": "AG 0097 ARAXA, MG",
            "sr": 2690,
            "nomeSr": "SR 2690 TRIANGULO MINEIRO, MG",
            "ibge": 3104007,
            "cidade": "Araxá",
            "uf": "MG",
            "regiao": "Sudeste",
            "cep": "38183-083",
            "latitude": -19.59081813845777,
            "longitude": -46.93894448492054
        },
        {
            "unidade": 98,
            "nomeUnidade": "AG 0098 BAEPENDI, MG",
            "sr": 2603,
            "nomeSr": "SR 2603 SUDESTE DE MINAS, MG",
            "ibge": 3104908,
            "cidade": "Baependi",
            "uf": "MG",
            "regiao": "Sudeste",
            "cep": "37443-000",
            "latitude": -21.958951476918976,
            "longitude": -44.89032950682792
        },
        {
            "unidade": 99,
            "nomeUnidade": "AG 0099 BARBACENA, MG",
            "sr": 2603,
            "nomeSr": "SR 2603 SUDESTE DE MINAS, MG",
            "ibge": 3105608,
            "cidade": "Barbacena",
            "uf": "MG",
            "regiao": "Sudeste",
            "cep": "36200-074",
            "latitude": -21.22213218451315,
            "longitude": -43.77236624598206
        },
        {
            "unidade": 100,
            "nomeUnidade": "AG 0100 BOA ESPERANCA, MG",
            "sr": 2603,
            "nomeSr": "SR 2603 SUDESTE DE MINAS, MG",
            "ibge": 3107109,
            "cidade": "Boa Esperança",
            "uf": "MG",
            "regiao": "Sudeste",
            "cep": "37170-000",
            "latitude": -21.09204137786902,
            "longitude": -45.56301877797594
        },
        {
            "unidade": 101,
            "nomeUnidade": "AG 0101 CAMBUQUIRA, MG",
            "sr": 2603,
            "nomeSr": "SR 2603 SUDESTE DE MINAS, MG",
            "ibge": 3110707,
            "cidade": "Cambuquira",
            "uf": "MG",
            "regiao": "Sudeste",
            "cep": "37420-000",
            "latitude": -21.8517,
            "longitude": -45.2945
        },
        {
            "unidade": 102,
            "nomeUnidade": "AG 0102 CAMPANHA, MG",
            "sr": 2603,
            "nomeSr": "SR 2603 SUDESTE DE MINAS, MG",
            "ibge": 3110905,
            "cidade": "Campanha",
            "uf": "MG",
            "regiao": "Sudeste",
            "cep": "37400-000",
            "latitude": -21.83414769979735,
            "longitude": -45.39987242219151
        },
        {
            "unidade": 103,
            "nomeUnidade": "AG 0103 CAMPO BELO, MG",
            "sr": 2606,
            "nomeSr": "SR 2606 BELO HORIZONTE OESTE, MG",
            "ibge": 3111200,
            "cidade": "Campo Belo",
            "uf": "MG",
            "regiao": "Sudeste",
            "cep": "37270-000",
            "latitude": -20.89379641795403,
            "longitude": -45.27670615837148
        },
        {
            "unidade": 104,
            "nomeUnidade": "AG 0104 CARANDAI, MG",
            "sr": 2602,
            "nomeSr": "SR 2602 BELO HORIZONTE LESTE, MG",
            "ibge": 3113206,
            "cidade": "Carandaí",
            "uf": "MG",
            "regiao": "Sudeste",
            "cep": "36280-000",
            "latitude": -20.951830606966997,
            "longitude": -43.805347109334214
        },
        {
            "unidade": 105,
            "nomeUnidade": "AG 0105 CARANGOLA, MG",
            "sr": 2603,
            "nomeSr": "SR 2603 SUDESTE DE MINAS, MG",
            "ibge": 3113305,
            "cidade": "Carangola",
            "uf": "MG",
            "regiao": "Sudeste",
            "cep": "36800-000",
            "latitude": -20.73342801336011,
            "longitude": -42.03127610104375
        },
        {
            "unidade": 106,
            "nomeUnidade": "AG 0106 CARATINGA, MG",
            "sr": 2598,
            "nomeSr": "SR 2598 NORDESTE DE MINAS, MG",
            "ibge": 3113404,
            "cidade": "Caratinga",
            "uf": "MG",
            "regiao": "Sudeste",
            "cep": "35300-036",
            "latitude": -19.78945455818085,
            "longitude": -42.1412503818125
        },
        {
            "unidade": 107,
            "nomeUnidade": "AG 0107 CASSIA, MG",
            "sr": 2606,
            "nomeSr": "SR 2606 BELO HORIZONTE OESTE, MG",
            "ibge": 3115102,
            "cidade": "Cássia",
            "uf": "MG",
            "regiao": "Sudeste",
            "cep": "37980-000",
            "latitude": -20.582002399085358,
            "longitude": -46.92384573656452
        },
        {
            "unidade": 108,
            "nomeUnidade": "AG 0108 CATAGUASES, MG",
            "sr": 2603,
            "nomeSr": "SR 2603 SUDESTE DE MINAS, MG",
            "ibge": 3115300,
            "cidade": "Cataguases",
            "uf": "MG",
            "regiao": "Sudeste",
            "cep": "36770-071",
            "latitude": -21.3874926,
            "longitude": -42.6930567
        },
        {
            "unidade": 109,
            "nomeUnidade": "AG 0109 CAXAMBU, MG",
            "sr": 2603,
            "nomeSr": "SR 2603 SUDESTE DE MINAS, MG",
            "ibge": 3115508,
            "cidade": "Caxambu",
            "uf": "MG",
            "regiao": "Sudeste",
            "cep": "37440-000",
            "latitude": -21.980052172124353,
            "longitude": -44.934443004581865
        },
        {
            "unidade": 110,
            "nomeUnidade": "AG 0110 CONCEICAO DO RIO VERDE, MG",
            "sr": 2603,
            "nomeSr": "SR 2603 SUDESTE DE MINAS, MG",
            "ibge": 3117702,
            "cidade": "Conceição do Rio Verde",
            "uf": "MG",
            "regiao": "Sudeste",
            "cep": "37430-000",
            "latitude": -21.88111564477007,
            "longitude": -45.08394518821185
        },
        {
            "unidade": 111,
            "nomeUnidade": "AG 0111 CURVELO, MG",
            "sr": 2602,
            "nomeSr": "SR 2602 BELO HORIZONTE LESTE, MG",
            "ibge": 3120904,
            "cidade": "Curvelo",
            "uf": "MG",
            "regiao": "Sudeste",
            "cep": "35790-207",
            "latitude": -18.755347619518545,
            "longitude": -44.42931234862797
        },
        {
            "unidade": 112,
            "nomeUnidade": "AG 0112 DIAMANTINA, MG",
            "sr": 2598,
            "nomeSr": "SR 2598 NORDESTE DE MINAS, MG",
            "ibge": 3121605,
            "cidade": "Diamantina",
            "uf": "MG",
            "regiao": "Sudeste",
            "cep": "39100-000",
            "latitude": -18.245149024293905,
            "longitude": -43.59751944803688
        },
        {
            "unidade": 113,
            "nomeUnidade": "AG 0113 DIVINOPOLIS, MG",
            "sr": 2606,
            "nomeSr": "SR 2606 BELO HORIZONTE OESTE, MG",
            "ibge": 3122306,
            "cidade": "Divinópolis",
            "uf": "MG",
            "regiao": "Sudeste",
            "cep": "35500-003",
            "latitude": -20.146059404791735,
            "longitude": -44.88822629442118
        },
        {
            "unidade": 114,
            "nomeUnidade": "AG 0114 ELOI MENDES, MG",
            "sr": 2603,
            "nomeSr": "SR 2603 SUDESTE DE MINAS, MG",
            "ibge": 3123601,
            "cidade": "Elói Mendes",
            "uf": "MG",
            "regiao": "Sudeste",
            "cep": "37110-000",
            "latitude": -21.609445107182477,
            "longitude": -45.56811413449791
        },
        {
            "unidade": 115,
            "nomeUnidade": "AG 0115 FORMIGA, MG",
            "sr": 2606,
            "nomeSr": "SR 2606 BELO HORIZONTE OESTE, MG",
            "ibge": 3126109,
            "cidade": "Formiga",
            "uf": "MG",
            "regiao": "Sudeste",
            "cep": "35570-024",
            "latitude": -20.46303979081512,
            "longitude": -45.43013116931785
        },
        {
            "unidade": 116,
            "nomeUnidade": "AG 0116 GOVERNADOR VALADARES, MG",
            "sr": 2598,
            "nomeSr": "SR 2598 NORDESTE DE MINAS, MG",
            "ibge": 3127701,
            "cidade": "Governador Valadares",
            "uf": "MG",
            "regiao": "Sudeste",
            "cep": "35010-250",
            "latitude": -18.854246912198203,
            "longitude": -41.946619175237785
        },
        {
            "unidade": 117,
            "nomeUnidade": "AG 0117 GUAXUPE, MG",
            "sr": 2603,
            "nomeSr": "SR 2603 SUDESTE DE MINAS, MG",
            "ibge": 3128709,
            "cidade": "Guaxupé",
            "uf": "MG",
            "regiao": "Sudeste",
            "cep": "37800-000",
            "latitude": -21.301852630952705,
            "longitude": -46.71151761245001
        },
        {
            "unidade": 118,
            "nomeUnidade": "AG 0118 HORTO DE IPATINGA, MG",
            "sr": 2598,
            "nomeSr": "SR 2598 NORDESTE DE MINAS, MG",
            "ibge": 3131307,
            "cidade": "Ipatinga",
            "uf": "MG",
            "regiao": "Sudeste",
            "cep": "35160-304",
            "latitude": -19.50748228914008,
            "longitude": -42.57137720379588
        },
        {
            "unidade": 119,
            "nomeUnidade": "AG 0119 ITABIRA, MG",
            "sr": 2598,
            "nomeSr": "SR 2598 NORDESTE DE MINAS, MG",
            "ibge": 3131703,
            "cidade": "Itabira",
            "uf": "MG",
            "regiao": "Sudeste",
            "cep": "35900-001",
            "latitude": -19.621890583383657,
            "longitude": -43.22584792289211
        },
        {
            "unidade": 120,
            "nomeUnidade": "AG 0120 ITABIRITO, MG",
            "sr": 2602,
            "nomeSr": "SR 2602 BELO HORIZONTE LESTE, MG",
            "ibge": 3131901,
            "cidade": "Itabirito",
            "uf": "MG",
            "regiao": "Sudeste",
            "cep": "35450-069",
            "latitude": -20.2497154,
            "longitude": -43.8035511
        },
        {
            "unidade": 121,
            "nomeUnidade": "AG 0121 ITAJUBA, MG",
            "sr": 2603,
            "nomeSr": "SR 2603 SUDESTE DE MINAS, MG",
            "ibge": 3132404,
            "cidade": "Itajubá",
            "uf": "MG",
            "regiao": "Sudeste",
            "cep": "37500-180",
            "latitude": -22.42257781312686,
            "longitude": -45.45471464057733
        },
        {
            "unidade": 122,
            "nomeUnidade": "AG 0122 ITANHANDU, MG",
            "sr": 2603,
            "nomeSr": "SR 2603 SUDESTE DE MINAS, MG",
            "ibge": 3133105,
            "cidade": "Itanhandu",
            "uf": "MG",
            "regiao": "Sudeste",
            "cep": "37464-000",
            "latitude": -22.295816116246076,
            "longitude": -44.937063792878135
        },
        {
            "unidade": 123,
            "nomeUnidade": "AG 0123 ITAPECERICA, MG",
            "sr": 2606,
            "nomeSr": "SR 2606 BELO HORIZONTE OESTE, MG",
            "ibge": 3133501,
            "cidade": "Itapecerica",
            "uf": "MG",
            "regiao": "Sudeste",
            "cep": "35550-000",
            "latitude": -20.4714028,
            "longitude": -45.1231996
        },
        {
            "unidade": 124,
            "nomeUnidade": "AG 0124 ITAUNA, MG",
            "sr": 2606,
            "nomeSr": "SR 2606 BELO HORIZONTE OESTE, MG",
            "ibge": 3133808,
            "cidade": "Itaúna",
            "uf": "MG",
            "regiao": "Sudeste",
            "cep": "35680-054",
            "latitude": -20.072542755168282,
            "longitude": -44.57627510840556
        },
        {
            "unidade": 125,
            "nomeUnidade": "AG 0125 ITUIUTABA, MG",
            "sr": 2690,
            "nomeSr": "SR 2690 TRIANGULO MINEIRO, MG",
            "ibge": 3134202,
            "cidade": "Ituiutaba",
            "uf": "MG",
            "regiao": "Sudeste",
            "cep": "38300-076",
            "latitude": -18.97176206761593,
            "longitude": -49.4629790433601
        },
        {
            "unidade": 126,
            "nomeUnidade": "AG 0126 MANCHESTER, MG",
            "sr": 2603,
            "nomeSr": "SR 2603 SUDESTE DE MINAS, MG",
            "ibge": 3136702,
            "cidade": "Juiz de Fora",
            "uf": "MG",
            "regiao": "Sudeste",
            "cep": "36016-310",
            "latitude": -21.7625,
            "longitude": -43.3496
        },
        {
            "unidade": 127,
            "nomeUnidade": "AG 0127 CONSELHEIRO LAFAIETE, MG",
            "sr": 2602,
            "nomeSr": "SR 2602 BELO HORIZONTE LESTE, MG",
            "ibge": 3118304,
            "cidade": "Conselheiro Lafaiete",
            "uf": "MG",
            "regiao": "Sudeste",
            "cep": "36400-070",
            "latitude": -20.659873519161707,
            "longitude": -43.79334999877645
        },
        {
            "unidade": 128,
            "nomeUnidade": "AG 0128 LAMBARI, MG",
            "sr": 2603,
            "nomeSr": "SR 2603 SUDESTE DE MINAS, MG",
            "ibge": 3137809,
            "cidade": "Lambari",
            "uf": "MG",
            "regiao": "Sudeste",
            "cep": "37480-000",
            "latitude": -21.9747944,
            "longitude": -45.3492618999999
        },
        {
            "unidade": 129,
            "nomeUnidade": "AG 0129 LAVRAS, MG",
            "sr": 2606,
            "nomeSr": "SR 2606 BELO HORIZONTE OESTE, MG",
            "ibge": 3138203,
            "cidade": "Lavras",
            "uf": "MG",
            "regiao": "Sudeste",
            "cep": "37200-154",
            "latitude": -21.2412608,
            "longitude": -44.9993064999999
        },
        {
            "unidade": 131,
            "nomeUnidade": "AG 0131 MANHUACU, MG",
            "sr": 2598,
            "nomeSr": "SR 2598 NORDESTE DE MINAS, MG",
            "ibge": 3139409,
            "cidade": "Manhuaçu",
            "uf": "MG",
            "regiao": "Sudeste",
            "cep": "36900-103",
            "latitude": -20.257127013454017,
            "longitude": -42.0345825681589
        },
        {
            "unidade": 132,
            "nomeUnidade": "AG 0132 MONTES CLAROS, MG",
            "sr": 2598,
            "nomeSr": "SR 2598 NORDESTE DE MINAS, MG",
            "ibge": 3143302,
            "cidade": "Montes Claros",
            "uf": "MG",
            "regiao": "Sudeste",
            "cep": "39400-001",
            "latitude": -16.724346133620866,
            "longitude": -43.86542765816811
        },
        {
            "unidade": 133,
            "nomeUnidade": "AG 0133 MURIAE, MG",
            "sr": 2603,
            "nomeSr": "SR 2603 SUDESTE DE MINAS, MG",
            "ibge": 3143906,
            "cidade": "Muriaé",
            "uf": "MG",
            "regiao": "Sudeste",
            "cep": "36880-018",
            "latitude": -21.1308416999999,
            "longitude": -42.3639852999999
        },
        {
            "unidade": 134,
            "nomeUnidade": "AG 0134 NOVA LIMA, MG",
            "sr": 2602,
            "nomeSr": "SR 2602 BELO HORIZONTE LESTE, MG",
            "ibge": 3144805,
            "cidade": "Nova Lima",
            "uf": "MG",
            "regiao": "Sudeste",
            "cep": "34000-087",
            "latitude": -19.9821573499999,
            "longitude": -43.852056
        },
        {
            "unidade": 135,
            "nomeUnidade": "AG 0135 OLIVEIRA, MG",
            "sr": 2606,
            "nomeSr": "SR 2606 BELO HORIZONTE OESTE, MG",
            "ibge": 3145604,
            "cidade": "Oliveira",
            "uf": "MG",
            "regiao": "Sudeste",
            "cep": "35540-000",
            "latitude": -20.697232410581755,
            "longitude": -44.826913158087905
        },
        {
            "unidade": 136,
            "nomeUnidade": "AG 0136 OURO PRETO, MG",
            "sr": 2602,
            "nomeSr": "SR 2602 BELO HORIZONTE LESTE, MG",
            "ibge": 3146107,
            "cidade": "Ouro Preto",
            "uf": "MG",
            "regiao": "Sudeste",
            "cep": "35400-000",
            "latitude": -20.3844846,
            "longitude": -43.507238
        },
        {
            "unidade": 137,
            "nomeUnidade": "AG 0137 PARA DE MINAS, MG",
            "sr": 2606,
            "nomeSr": "SR 2606 BELO HORIZONTE OESTE, MG",
            "ibge": 3147105,
            "cidade": "Pará de Minas",
            "uf": "MG",
            "regiao": "Sudeste",
            "cep": "35660-630",
            "latitude": -19.862151723775767,
            "longitude": -44.60751662483119
        },
        {
            "unidade": 138,
            "nomeUnidade": "AG 0138 PARACATU, MG",
            "sr": 2637,
            "nomeSr": "SR 2637 BRASILIA SUL, DF",
            "ibge": 3147006,
            "cidade": "Paracatu",
            "uf": "MG",
            "regiao": "Sudeste",
            "cep": "38600-196",
            "latitude": -17.216777302570087,
            "longitude": -46.87202365921947
        },
        {
            "unidade": 139,
            "nomeUnidade": "AG 0139 PARAGUACU, MG",
            "sr": 2603,
            "nomeSr": "SR 2603 SUDESTE DE MINAS, MG",
            "ibge": 3147204,
            "cidade": "Paraguaçu",
            "uf": "MG",
            "regiao": "Sudeste",
            "cep": "37120-000",
            "latitude": -21.547799461899483,
            "longitude": -45.73745265418014
        },
        {
            "unidade": 140,
            "nomeUnidade": "AG 0140 PASSA QUATRO, MG",
            "sr": 2603,
            "nomeSr": "SR 2603 SUDESTE DE MINAS, MG",
            "ibge": 3147600,
            "cidade": "Passa Quatro",
            "uf": "MG",
            "regiao": "Sudeste",
            "cep": "37460-000",
            "latitude": -22.38812083486459,
            "longitude": -44.96516444467782
        },
        {
            "unidade": 141,
            "nomeUnidade": "AG 0141 PASSOS, MG",
            "sr": 2606,
            "nomeSr": "SR 2606 BELO HORIZONTE OESTE, MG",
            "ibge": 3147907,
            "cidade": "Passos",
            "uf": "MG",
            "regiao": "Sudeste",
            "cep": "37900-152",
            "latitude": -20.718756037200695,
            "longitude": -46.608258410137566
        },
        {
            "unidade": 142,
            "nomeUnidade": "AG 0142 PATOS DE MINAS, MG",
            "sr": 2690,
            "nomeSr": "SR 2690 TRIANGULO MINEIRO, MG",
            "ibge": 3148004,
            "cidade": "Patos de Minas",
            "uf": "MG",
            "regiao": "Sudeste",
            "cep": "38700-122",
            "latitude": -18.5896035943459,
            "longitude": -46.51427359949268
        },
        {
            "unidade": 143,
            "nomeUnidade": "AG 0143 PATROCINIO, MG",
            "sr": 2690,
            "nomeSr": "SR 2690 TRIANGULO MINEIRO, MG",
            "ibge": 3148103,
            "cidade": "Patrocínio",
            "uf": "MG",
            "regiao": "Sudeste",
            "cep": "38740-036",
            "latitude": -18.9410245999999,
            "longitude": -46.9934546999999
        },
        {
            "unidade": 144,
            "nomeUnidade": "AG 0144 PEDRO LEOPOLDO, MG",
            "sr": 2602,
            "nomeSr": "SR 2602 BELO HORIZONTE LESTE, MG",
            "ibge": 3149309,
            "cidade": "Pedro Leopoldo",
            "uf": "MG",
            "regiao": "Sudeste",
            "cep": "33250-033",
            "latitude": -19.62236009780495,
            "longitude": -44.04071072079534
        },
        {
            "unidade": 145,
            "nomeUnidade": "AG 0145 POCOS DE CALDAS, MG",
            "sr": 2603,
            "nomeSr": "SR 2603 SUDESTE DE MINAS, MG",
            "ibge": 3151800,
            "cidade": "Poços de Caldas",
            "uf": "MG",
            "regiao": "Sudeste",
            "cep": "37701-012",
            "latitude": -21.78674259722251,
            "longitude": -46.56672731750152
        },
        {
            "unidade": 146,
            "nomeUnidade": "AG 0146 PONTE NOVA, MG",
            "sr": 2603,
            "nomeSr": "SR 2603 SUDESTE DE MINAS, MG",
            "ibge": 3152105,
            "cidade": "Ponte Nova",
            "uf": "MG",
            "regiao": "Sudeste",
            "cep": "35430-012",
            "latitude": -20.417949084061345,
            "longitude": -42.909785921045525
        },
        {
            "unidade": 147,
            "nomeUnidade": "AG 0147 POUSO ALEGRE, MG",
            "sr": 2603,
            "nomeSr": "SR 2603 SUDESTE DE MINAS, MG",
            "ibge": 3152501,
            "cidade": "Pouso Alegre",
            "uf": "MG",
            "regiao": "Sudeste",
            "cep": "37550-157",
            "latitude": -22.234859019800272,
            "longitude": -45.93308449207096
        },
        {
            "unidade": 148,
            "nomeUnidade": "AG 0148 SANTANA DO JACARE, MG",
            "sr": 2606,
            "nomeSr": "SR 2606 BELO HORIZONTE OESTE, MG",
            "ibge": 3158805,
            "cidade": "Santana do Jacaré",
            "uf": "MG",
            "regiao": "Sudeste",
            "cep": "37278-000",
            "latitude": -20.8997484,
            "longitude": -45.1290823
        },
        {
            "unidade": 149,
            "nomeUnidade": "AG 0149 SANTOS DUMONT, MG",
            "sr": 2603,
            "nomeSr": "SR 2603 SUDESTE DE MINAS, MG",
            "ibge": 3160702,
            "cidade": "Santos Dumont",
            "uf": "MG",
            "regiao": "Sudeste",
            "cep": "36240-075",
            "latitude": -21.45581496375707,
            "longitude": -43.55186974003993
        },
        {
            "unidade": 150,
            "nomeUnidade": "AG 0150 SAO GONCALO DO SAPUCAI, MG",
            "sr": 2603,
            "nomeSr": "SR 2603 SUDESTE DE MINAS, MG",
            "ibge": 3162005,
            "cidade": "São Gonçalo do Sapucaí",
            "uf": "MG",
            "regiao": "Sudeste",
            "cep": "37490-000",
            "latitude": -21.89184657736096,
            "longitude": -45.59290536694716
        },
        {
            "unidade": 151,
            "nomeUnidade": "AG 0151 SAO JOAO DEL REI, MG",
            "sr": 2602,
            "nomeSr": "SR 2602 BELO HORIZONTE LESTE, MG",
            "ibge": 3162500,
            "cidade": "São João del Rei",
            "uf": "MG",
            "regiao": "Sudeste",
            "cep": "36307-302",
            "latitude": -21.133384902575397,
            "longitude": -44.25677971054358
        },
        {
            "unidade": 152,
            "nomeUnidade": "AG 0152 SAO LOURENCO, MG",
            "sr": 2603,
            "nomeSr": "SR 2603 SUDESTE DE MINAS, MG",
            "ibge": 3163706,
            "cidade": "São Lourenço",
            "uf": "MG",
            "regiao": "Sudeste",
            "cep": "37470-000",
            "latitude": -22.115483186013428,
            "longitude": -45.05331092894528
        },
        {
            "unidade": 153,
            "nomeUnidade": "AG 0153 SAO SEBASTIAO DO PARAISO, MG",
            "sr": 2606,
            "nomeSr": "SR 2606 BELO HORIZONTE OESTE, MG",
            "ibge": 3164704,
            "cidade": "São Sebastião do Paraíso",
            "uf": "MG",
            "regiao": "Sudeste",
            "cep": "37950-000",
            "latitude": -20.9177866,
            "longitude": -46.9910807
        },
        {
            "unidade": 154,
            "nomeUnidade": "AG 0154 SETE LAGOAS, MG",
            "sr": 2602,
            "nomeSr": "SR 2602 BELO HORIZONTE LESTE, MG",
            "ibge": 3167202,
            "cidade": "Sete Lagoas",
            "uf": "MG",
            "regiao": "Sudeste",
            "cep": "35700-640",
            "latitude": -19.4567571999999,
            "longitude": -44.2429069
        },
        {
            "unidade": 155,
            "nomeUnidade": "AG 0155 TEOFILO OTONI, MG",
            "sr": 2598,
            "nomeSr": "SR 2598 NORDESTE DE MINAS, MG",
            "ibge": 3168606,
            "cidade": "Teófilo Otoni",
            "uf": "MG",
            "regiao": "Sudeste",
            "cep": "39800-019",
            "latitude": -17.86512895066065,
            "longitude": -41.5070454040419
        },
        {
            "unidade": 156,
            "nomeUnidade": "AG 0156 TRES CORACOES, MG",
            "sr": 2603,
            "nomeSr": "SR 2603 SUDESTE DE MINAS, MG",
            "ibge": 3169307,
            "cidade": "Três Corações",
            "uf": "MG",
            "regiao": "Sudeste",
            "cep": "37410-137",
            "latitude": -21.698691263115023,
            "longitude": -45.25537049820512
        },
        {
            "unidade": 157,
            "nomeUnidade": "AG 0157 TRES PONTAS, MG",
            "sr": 2603,
            "nomeSr": "SR 2603 SUDESTE DE MINAS, MG",
            "ibge": 3169406,
            "cidade": "Três Pontas",
            "uf": "MG",
            "regiao": "Sudeste",
            "cep": "37190-000",
            "latitude": -21.367435214839045,
            "longitude": -45.51261756793055
        },
        {
            "unidade": 158,
            "nomeUnidade": "AG 0158 TUPACIGUARA, MG",
            "sr": 2690,
            "nomeSr": "SR 2690 TRIANGULO MINEIRO, MG",
            "ibge": 3169604,
            "cidade": "Tupaciguara",
            "uf": "MG",
            "regiao": "Sudeste",
            "cep": "38480-000",
            "latitude": -18.592896240957284,
            "longitude": -48.70412533431822
        },
        {
            "unidade": 159,
            "nomeUnidade": "AG 0159 UBA, MG",
            "sr": 2603,
            "nomeSr": "SR 2603 SUDESTE DE MINAS, MG",
            "ibge": 3169901,
            "cidade": "Ubá",
            "uf": "MG",
            "regiao": "Sudeste",
            "cep": "36500-095",
            "latitude": -21.12028468742893,
            "longitude": -42.93973440861948
        },
        {
            "unidade": 160,
            "nomeUnidade": "AG 0160 UBERABA, MG",
            "sr": 2690,
            "nomeSr": "SR 2690 TRIANGULO MINEIRO, MG",
            "ibge": 3170107,
            "cidade": "Uberaba",
            "uf": "MG",
            "regiao": "Sudeste",
            "cep": "38065-165",
            "latitude": -19.743943749510674,
            "longitude": -47.939056767230454
        },
        {
            "unidade": 161,
            "nomeUnidade": "AG 0161 UBERLANDIA, MG",
            "sr": 2690,
            "nomeSr": "SR 2690 TRIANGULO MINEIRO, MG",
            "ibge": 3170206,
            "cidade": "Uberlândia",
            "uf": "MG",
            "regiao": "Sudeste",
            "cep": "38400-122",
            "latitude": -18.916389926900706,
            "longitude": -48.275502316709776
        },
        {
            "unidade": 162,
            "nomeUnidade": "AG 0162 TUBAL VILELA, MG",
            "sr": 2690,
            "nomeSr": "SR 2690 TRIANGULO MINEIRO, MG",
            "ibge": 3170206,
            "cidade": "Uberlândia",
            "uf": "MG",
            "regiao": "Sudeste",
            "cep": "38400-186",
            "latitude": -18.919867089063445,
            "longitude": -48.27804101817828
        },
        {
            "unidade": 163,
            "nomeUnidade": "AG 0163 VARGINHA, MG",
            "sr": 2603,
            "nomeSr": "SR 2603 SUDESTE DE MINAS, MG",
            "ibge": 3170701,
            "cidade": "Varginha",
            "uf": "MG",
            "regiao": "Sudeste",
            "cep": "37002-035",
            "latitude": -21.5580972,
            "longitude": -45.4387638
        },
        {
            "unidade": 164,
            "nomeUnidade": "AG 0164 VICOSA, MG",
            "sr": 2603,
            "nomeSr": "SR 2603 SUDESTE DE MINAS, MG",
            "ibge": 3171303,
            "cidade": "Viçosa",
            "uf": "MG",
            "regiao": "Sudeste",
            "cep": "36570-035",
            "latitude": -20.75325294520696,
            "longitude": -42.8811352651727
        },
        {
            "unidade": 165,
            "nomeUnidade": "AG 0165 VIRGINIA, MG",
            "sr": 2603,
            "nomeSr": "SR 2603 SUDESTE DE MINAS, MG",
            "ibge": 3171709,
            "cidade": "Virgínia",
            "uf": "MG",
            "regiao": "Sudeste",
            "cep": "37465-000",
            "latitude": -22.333199300404868,
            "longitude": -45.092896051623015
        },
        {
            "unidade": 166,
            "nomeUnidade": "AG 0166 VISCONDE DO RIO BRANCO, MG",
            "sr": 2603,
            "nomeSr": "SR 2603 SUDESTE DE MINAS, MG",
            "ibge": 3172004,
            "cidade": "Visconde do Rio Branco",
            "uf": "MG",
            "regiao": "Sudeste",
            "cep": "36520-000",
            "latitude": -21.00968465549381,
            "longitude": -42.83926144913976
        },
        {
            "unidade": 167,
            "nomeUnidade": "AG 0167 BEIRAMAR, ES",
            "sr": 2596,
            "nomeSr": "SR 2596 ESPIRITO SANTO, ES",
            "ibge": 3205309,
            "cidade": "Vitória",
            "uf": "ES",
            "regiao": "Sudeste",
            "cep": "29010-360",
            "latitude": -20.320522012705947,
            "longitude": -40.33371994379208
        },
        {
            "unidade": 168,
            "nomeUnidade": "AG 0168 ENSEADA, ES",
            "sr": 2596,
            "nomeSr": "SR 2596 ESPIRITO SANTO, ES",
            "ibge": 3205309,
            "cidade": "Vitória",
            "uf": "ES",
            "regiao": "Sudeste",
            "cep": "29050-335",
            "latitude": -20.315863658401355,
            "longitude": -40.29313611388666
        },
        {
            "unidade": 169,
            "nomeUnidade": "AG 0169 ALEGRE, ES",
            "sr": 2596,
            "nomeSr": "SR 2596 ESPIRITO SANTO, ES",
            "ibge": 3200201,
            "cidade": "Alegre",
            "uf": "ES",
            "regiao": "Sudeste",
            "cep": "29500-000",
            "latitude": -20.763041892005077,
            "longitude": -41.532316843901455
        },
        {
            "unidade": 170,
            "nomeUnidade": "AG 0170 AFONSO CLAUDIO, ES",
            "sr": 2596,
            "nomeSr": "SR 2596 ESPIRITO SANTO, ES",
            "ibge": 3200102,
            "cidade": "Afonso Cláudio",
            "uf": "ES",
            "regiao": "Sudeste",
            "cep": "29600-000",
            "latitude": -20.077559806081243,
            "longitude": -41.124677346775
        },
        {
            "unidade": 171,
            "nomeUnidade": "AG 0171 CACHOEIRO DE ITAPEMIRIM, ES",
            "sr": 2596,
            "nomeSr": "SR 2596 ESPIRITO SANTO, ES",
            "ibge": 3201209,
            "cidade": "Cachoeiro de Itapemirim",
            "uf": "ES",
            "regiao": "Sudeste",
            "cep": "29304-048",
            "latitude": -20.848203745984694,
            "longitude": -41.11305038171206
        },
        {
            "unidade": 172,
            "nomeUnidade": "AG 0172 COLATINA, ES",
            "sr": 2596,
            "nomeSr": "SR 2596 ESPIRITO SANTO, ES",
            "ibge": 3201506,
            "cidade": "Colatina",
            "uf": "ES",
            "regiao": "Sudeste",
            "cep": "29700-011",
            "latitude": -19.5351726,
            "longitude": -40.6283352
        },
        {
            "unidade": 173,
            "nomeUnidade": "AG 0173 VILA VELHA, ES",
            "sr": 2596,
            "nomeSr": "SR 2596 ESPIRITO SANTO, ES",
            "ibge": 3205200,
            "cidade": "Vila Velha",
            "uf": "ES",
            "regiao": "Sudeste",
            "cep": "29100-011",
            "latitude": -20.336023969207268,
            "longitude": -40.29234081665286
        },
        {
            "unidade": 174,
            "nomeUnidade": "AG 0174 NITEROI, RJ",
            "sr": 2607,
            "nomeSr": "SR 2607 REGIAO METROPOLITANA, RJ",
            "ibge": 3303302,
            "cidade": "Niterói",
            "uf": "RJ",
            "regiao": "Sudeste",
            "cep": "24020-072",
            "latitude": -22.8934868,
            "longitude": -43.1206243
        },
        {
            "unidade": 175,
            "nomeUnidade": "AG 0175 ICARAI, RJ",
            "sr": 2607,
            "nomeSr": "SR 2607 REGIAO METROPOLITANA, RJ",
            "ibge": 3303302,
            "cidade": "Niterói",
            "uf": "RJ",
            "regiao": "Sudeste",
            "cep": "24230-102",
            "latitude": -22.905160340789433,
            "longitude": -43.10869475603646
        },
        {
            "unidade": 176,
            "nomeUnidade": "AG 0176 BARRA MANSA, RJ",
            "sr": 2595,
            "nomeSr": "SR 2595 SUL FLUMINENSE, RJ",
            "ibge": 3300407,
            "cidade": "Barra Mansa",
            "uf": "RJ",
            "regiao": "Sudeste",
            "cep": "27330-110",
            "latitude": -22.5446675,
            "longitude": -44.1707203
        },
        {
            "unidade": 177,
            "nomeUnidade": "AG 0177 BARRA DO PIRAI, RJ",
            "sr": 2595,
            "nomeSr": "SR 2595 SUL FLUMINENSE, RJ",
            "ibge": 3300308,
            "cidade": "Barra do Piraí",
            "uf": "RJ",
            "regiao": "Sudeste",
            "cep": "27123-000",
            "latitude": -22.46894030339808,
            "longitude": -43.82681885523463
        },
        {
            "unidade": 178,
            "nomeUnidade": "AG 0178 BOM JESUS DO ITABAPOANA, RJ",
            "sr": 2594,
            "nomeSr": "SR 2594 NORTE FLUMINENSE, RJ",
            "ibge": 3300605,
            "cidade": "Bom Jesus do Itabapoana",
            "uf": "RJ",
            "regiao": "Sudeste",
            "cep": "28360-000",
            "latitude": -21.1351244,
            "longitude": -41.6781926
        },
        {
            "unidade": 179,
            "nomeUnidade": "AG 0179 CABO FRIO, RJ",
            "sr": 2594,
            "nomeSr": "SR 2594 NORTE FLUMINENSE, RJ",
            "ibge": 3300704,
            "cidade": "Cabo Frio",
            "uf": "RJ",
            "regiao": "Sudeste",
            "cep": "28906-200",
            "latitude": -22.878301995312565,
            "longitude": -42.016921128023
        },
        {
            "unidade": 180,
            "nomeUnidade": "AG 0180 CAMPOS, RJ",
            "sr": 2594,
            "nomeSr": "SR 2594 NORTE FLUMINENSE, RJ",
            "ibge": 3301009,
            "cidade": "Campos dos Goytacazes",
            "uf": "RJ",
            "regiao": "Sudeste",
            "cep": "28010-230",
            "latitude": -21.75747400675963,
            "longitude": -41.323048248326955
        },
        {
            "unidade": 181,
            "nomeUnidade": "AG 0181 DUQUE DE CAXIAS, RJ",
            "sr": 2607,
            "nomeSr": "SR 2607 REGIAO METROPOLITANA, RJ",
            "ibge": 3301702,
            "cidade": "Duque de Caxias",
            "uf": "RJ",
            "regiao": "Sudeste",
            "cep": "25020-140",
            "latitude": -22.78876913490067,
            "longitude": -43.311739282374184
        },
        {
            "unidade": 182,
            "nomeUnidade": "AG 0182 ITAPERUNA, RJ",
            "sr": 2594,
            "nomeSr": "SR 2594 NORTE FLUMINENSE, RJ",
            "ibge": 3302205,
            "cidade": "Itaperuna",
            "uf": "RJ",
            "regiao": "Sudeste",
            "cep": "28300-000",
            "latitude": -21.20848498526484,
            "longitude": -41.88687885430028
        },
        {
            "unidade": 183,
            "nomeUnidade": "AG 0183 MAGE, RJ",
            "sr": 2607,
            "nomeSr": "SR 2607 REGIAO METROPOLITANA, RJ",
            "ibge": 3302502,
            "cidade": "Magé",
            "uf": "RJ",
            "regiao": "Sudeste",
            "cep": "25900-094",
            "latitude": -22.65631708893137,
            "longitude": -43.039324218973924
        },
        {
            "unidade": 184,
            "nomeUnidade": "AG 0184 MACAE, RJ",
            "sr": 2594,
            "nomeSr": "SR 2594 NORTE FLUMINENSE, RJ",
            "ibge": 3302403,
            "cidade": "Macaé",
            "uf": "RJ",
            "regiao": "Sudeste",
            "cep": "27910-362",
            "latitude": -22.377153514942332,
            "longitude": -41.77710416271883
        },
        {
            "unidade": 185,
            "nomeUnidade": "AG 0185 NOVA IGUACU, RJ",
            "sr": 2607,
            "nomeSr": "SR 2607 REGIAO METROPOLITANA, RJ",
            "ibge": 3303500,
            "cidade": "Nova Iguaçu",
            "uf": "RJ",
            "regiao": "Sudeste",
            "cep": "26220-060",
            "latitude": -22.758710227510964,
            "longitude": -43.453551269927395
        },
        {
            "unidade": 186,
            "nomeUnidade": "AG 0186 NOVA FRIBURGO, RJ",
            "sr": 2594,
            "nomeSr": "SR 2594 NORTE FLUMINENSE, RJ",
            "ibge": 3303401,
            "cidade": "Nova Friburgo",
            "uf": "RJ",
            "regiao": "Sudeste",
            "cep": "28613-001",
            "latitude": -22.28308513184478,
            "longitude": -42.53098771237339
        },
        {
            "unidade": 187,
            "nomeUnidade": "AG 0187 NILOPOLIS, RJ",
            "sr": 2607,
            "nomeSr": "SR 2607 REGIAO METROPOLITANA, RJ",
            "ibge": 3303203,
            "cidade": "Nilópolis",
            "uf": "RJ",
            "regiao": "Sudeste",
            "cep": "26525-023",
            "latitude": -22.80933059280429,
            "longitude": -43.41743847197975
        },
        {
            "unidade": 188,
            "nomeUnidade": "AG 0188 PETROPOLIS, RJ",
            "sr": 2595,
            "nomeSr": "SR 2595 SUL FLUMINENSE, RJ",
            "ibge": 3303906,
            "cidade": "Petrópolis",
            "uf": "RJ",
            "regiao": "Sudeste",
            "cep": "25620-003",
            "latitude": -22.51087612088197,
            "longitude": -43.17686638577258
        },
        {
            "unidade": 189,
            "nomeUnidade": "AG 0189 RESENDE, RJ",
            "sr": 2595,
            "nomeSr": "SR 2595 SUL FLUMINENSE, RJ",
            "ibge": 3304201,
            "cidade": "Resende",
            "uf": "RJ",
            "regiao": "Sudeste",
            "cep": "27542-070",
            "latitude": -22.4656107,
            "longitude": -44.4471883999999
        },
        {
            "unidade": 190,
            "nomeUnidade": "AG 0190 SAO JOAO DE MERITI, RJ",
            "sr": 2607,
            "nomeSr": "SR 2607 REGIAO METROPOLITANA, RJ",
            "ibge": 3305109,
            "cidade": "São João de Meriti",
            "uf": "RJ",
            "regiao": "Sudeste",
            "cep": "25520-662",
            "latitude": -22.803008499819427,
            "longitude": -43.3733448983677
        },
        {
            "unidade": 191,
            "nomeUnidade": "AG 0191 SANTO ANTONIO DE PADUA, RJ",
            "sr": 2594,
            "nomeSr": "SR 2594 NORTE FLUMINENSE, RJ",
            "ibge": 3304706,
            "cidade": "Santo Antônio de Pádua",
            "uf": "RJ",
            "regiao": "Sudeste",
            "cep": "28470-000",
            "latitude": -21.539823701461437,
            "longitude": -42.180569066187736
        },
        {
            "unidade": 192,
            "nomeUnidade": "AG 0192 SAO FIDELIS, RJ",
            "sr": 2594,
            "nomeSr": "SR 2594 NORTE FLUMINENSE, RJ",
            "ibge": 3304805,
            "cidade": "São Fidélis",
            "uf": "RJ",
            "regiao": "Sudeste",
            "cep": "28400-000",
            "latitude": -21.6466596,
            "longitude": -41.7491364
        },
        {
            "unidade": 193,
            "nomeUnidade": "AG 0193 TERESOPOLIS, RJ",
            "sr": 2595,
            "nomeSr": "SR 2595 SUL FLUMINENSE, RJ",
            "ibge": 3305802,
            "cidade": "Teresópolis",
            "uf": "RJ",
            "regiao": "Sudeste",
            "cep": "25953-236",
            "latitude": -22.41081813453718,
            "longitude": -42.96491709689783
        },
        {
            "unidade": 194,
            "nomeUnidade": "AG 0194 SAO GONCALO, RJ",
            "sr": 2607,
            "nomeSr": "SR 2607 REGIAO METROPOLITANA, RJ",
            "ibge": 3304904,
            "cidade": "São Gonçalo",
            "uf": "RJ",
            "regiao": "Sudeste",
            "cep": "24445-360",
            "latitude": -22.8226284,
            "longitude": -43.0437373
        },
        {
            "unidade": 195,
            "nomeUnidade": "AG 0195 TRES RIOS, RJ",
            "sr": 2595,
            "nomeSr": "SR 2595 SUL FLUMINENSE, RJ",
            "ibge": 3306008,
            "cidade": "Três Rios",
            "uf": "RJ",
            "regiao": "Sudeste",
            "cep": "25804-000",
            "latitude": -22.1155,
            "longitude": -43.212
        },
        {
            "unidade": 196,
            "nomeUnidade": "AG 0196 VASSOURAS, RJ",
            "sr": 2595,
            "nomeSr": "SR 2595 SUL FLUMINENSE, RJ",
            "ibge": 3306206,
            "cidade": "Vassouras",
            "uf": "RJ",
            "regiao": "Sudeste",
            "cep": "27700-000",
            "latitude": -22.408774183957004,
            "longitude": -43.662415062947595
        },
        {
            "unidade": 197,
            "nomeUnidade": "AG 0197 VOLTA REDONDA, RJ",
            "sr": 2595,
            "nomeSr": "SR 2595 SUL FLUMINENSE, RJ",
            "ibge": 3306305,
            "cidade": "Volta Redonda",
            "uf": "RJ",
            "regiao": "Sudeste",
            "cep": "27260-140",
            "latitude": -22.5176799,
            "longitude": -44.1055001
        },
        {
            "unidade": 198,
            "nomeUnidade": "AG 0198 LARGO DA CARIOCA, RJ",
            "sr": 2589,
            "nomeSr": "SR 2589 RIO CAPITAL, RJ",
            "ibge": 3304557,
            "cidade": "Rio de Janeiro",
            "uf": "RJ",
            "regiao": "Sudeste",
            "cep": "20050-008",
            "latitude": -22.906594111197855,
            "longitude": -43.179727164391856
        },
        {
            "unidade": 199,
            "nomeUnidade": "AG 0199 ALMIRANTE TAMANDARE, RJ",
            "sr": 2589,
            "nomeSr": "SR 2589 RIO CAPITAL, RJ",
            "ibge": 3304557,
            "cidade": "Rio de Janeiro",
            "uf": "RJ",
            "regiao": "Sudeste",
            "cep": "20090-003",
            "latitude": -22.897806981480358,
            "longitude": -43.18019728861567
        },
        {
            "unidade": 200,
            "nomeUnidade": "AG 0200 ANCHIETA, RJ",
            "sr": 2607,
            "nomeSr": "SR 2607 REGIAO METROPOLITANA, RJ",
            "ibge": 3304557,
            "cidade": "Rio de Janeiro",
            "uf": "RJ",
            "regiao": "Sudeste",
            "cep": "21645-010",
            "latitude": -22.82394448457163,
            "longitude": -43.40295901121852
        },
        {
            "unidade": 201,
            "nomeUnidade": "AG 0201 ANDARAI, RJ",
            "sr": 2589,
            "nomeSr": "SR 2589 RIO CAPITAL, RJ",
            "ibge": 3304557,
            "cidade": "Rio de Janeiro",
            "uf": "RJ",
            "regiao": "Sudeste",
            "cep": "20540-004",
            "latitude": -22.9237841999999,
            "longitude": -43.2547575
        },
        {
            "unidade": 202,
            "nomeUnidade": "AG 0202 BANDEIRA, RJ",
            "sr": 2589,
            "nomeSr": "SR 2589 RIO CAPITAL, RJ",
            "ibge": 3304557,
            "cidade": "Rio de Janeiro",
            "uf": "RJ",
            "regiao": "Sudeste",
            "cep": "20270-005",
            "latitude": -22.91259257326813,
            "longitude": -43.21534828227585
        },
        {
            "unidade": 203,
            "nomeUnidade": "AG 0203 BANGU, RJ",
            "sr": 2607,
            "nomeSr": "SR 2607 REGIAO METROPOLITANA, RJ",
            "ibge": 3304557,
            "cidade": "Rio de Janeiro",
            "uf": "RJ",
            "regiao": "Sudeste",
            "cep": "21810-011",
            "latitude": -22.87892090679216,
            "longitude": -43.4646919558725
        },
        {
            "unidade": 204,
            "nomeUnidade": "AG 0204 BARATA RIBEIRO, RJ",
            "sr": 2589,
            "nomeSr": "SR 2589 RIO CAPITAL, RJ",
            "ibge": 3304557,
            "cidade": "Rio de Janeiro",
            "uf": "RJ",
            "regiao": "Sudeste",
            "cep": "22031-072",
            "latitude": -22.9685,
            "longitude": -43.1846
        },
        {
            "unidade": 205,
            "nomeUnidade": "AG 0205 BONSUCESSO, RJ",
            "sr": 2589,
            "nomeSr": "SR 2589 RIO CAPITAL, RJ",
            "ibge": 3304557,
            "cidade": "Rio de Janeiro",
            "uf": "RJ",
            "regiao": "Sudeste",
            "cep": "21032-000",
            "latitude": -22.86361916473959,
            "longitude": -43.25414187301212
        },
        {
            "unidade": 206,
            "nomeUnidade": "AG 0206 BOTAFOGO, RJ",
            "sr": 2589,
            "nomeSr": "SR 2589 RIO CAPITAL, RJ",
            "ibge": 3304557,
            "cidade": "Rio de Janeiro",
            "uf": "RJ",
            "regiao": "Sudeste",
            "cep": "22270-014",
            "latitude": -22.9534767499999,
            "longitude": -43.1906697499999
        },
        {
            "unidade": 207,
            "nomeUnidade": "AG 0207 AV LOBO JUNIOR, RJ",
            "sr": 2589,
            "nomeSr": "SR 2589 RIO CAPITAL, RJ",
            "ibge": 3304557,
            "cidade": "Rio de Janeiro",
            "uf": "RJ",
            "regiao": "Sudeste",
            "cep": "21020-123",
            "latitude": -22.83487754903912,
            "longitude": -43.28174263457265
        },
        {
            "unidade": 208,
            "nomeUnidade": "AG 0208 FREIRE ALEMAO, RJ",
            "sr": 2607,
            "nomeSr": "SR 2607 REGIAO METROPOLITANA, RJ",
            "ibge": 3304557,
            "cidade": "Rio de Janeiro",
            "uf": "RJ",
            "regiao": "Sudeste",
            "cep": "23050-102",
            "latitude": -22.90737807011482,
            "longitude": -43.562198806333505
        },
        {
            "unidade": 209,
            "nomeUnidade": "AG 0209 GUANABARA, RJ",
            "sr": 2589,
            "nomeSr": "SR 2589 RIO CAPITAL, RJ",
            "ibge": 3304557,
            "cidade": "Rio de Janeiro",
            "uf": "RJ",
            "regiao": "Sudeste",
            "cep": "20090-003",
            "latitude": -22.8992322,
            "longitude": -43.1795998
        },
        {
            "unidade": 210,
            "nomeUnidade": "AG 0210 CASCADURA, RJ",
            "sr": 2607,
            "nomeSr": "SR 2607 REGIAO METROPOLITANA, RJ",
            "ibge": 3304557,
            "cidade": "Rio de Janeiro",
            "uf": "RJ",
            "regiao": "Sudeste",
            "cep": "21310-310",
            "latitude": -22.882625314084013,
            "longitude": -43.330486591441584
        },
        {
            "unidade": 211,
            "nomeUnidade": "AG 0211 LARANJEIRAS, RJ",
            "sr": 2589,
            "nomeSr": "SR 2589 RIO CAPITAL, RJ",
            "ibge": 3304557,
            "cidade": "Rio de Janeiro",
            "uf": "RJ",
            "regiao": "Sudeste",
            "cep": "22240-000",
            "latitude": -22.93209087485905,
            "longitude": -43.180711948689
        },
        {
            "unidade": 212,
            "nomeUnidade": "AG 0212 COPACABANA, RJ",
            "sr": 2589,
            "nomeSr": "SR 2589 RIO CAPITAL, RJ",
            "ibge": 3304557,
            "cidade": "Rio de Janeiro",
            "uf": "RJ",
            "regiao": "Sudeste",
            "cep": "22060-001",
            "latitude": -22.9744796592455,
            "longitude": -43.189054011490036
        },
        {
            "unidade": 213,
            "nomeUnidade": "AG 0213 DEODORO, RJ",
            "sr": 2607,
            "nomeSr": "SR 2607 REGIAO METROPOLITANA, RJ",
            "ibge": 3304557,
            "cidade": "Rio de Janeiro",
            "uf": "RJ",
            "regiao": "Sudeste",
            "cep": "21615-220",
            "latitude": -22.85840987130958,
            "longitude": -43.38789807853662
        },
        {
            "unidade": 214,
            "nomeUnidade": "PA 0214 PALACIO DO EXERCITO, RJ",
            "sr": 2589,
            "nomeSr": "SR 2589 RIO CAPITAL, RJ",
            "ibge": 3304557,
            "cidade": "Rio de Janeiro",
            "uf": "RJ",
            "regiao": "Sudeste",
            "cep": "20221-260",
            "latitude": -22.903275277493762,
            "longitude": -43.18950536697958
        },
        {
            "unidade": 215,
            "nomeUnidade": "AG 0215 ESTRADA DO GALEAO, RJ",
            "sr": 2589,
            "nomeSr": "SR 2589 RIO CAPITAL, RJ",
            "ibge": 3304557,
            "cidade": "Rio de Janeiro",
            "uf": "RJ",
            "regiao": "Sudeste",
            "cep": "21941-353",
            "latitude": -22.805880761749908,
            "longitude": -43.211344891533564
        },
        {
            "unidade": 216,
            "nomeUnidade": "AG 0216 COCOTA, RJ",
            "sr": 2589,
            "nomeSr": "SR 2589 RIO CAPITAL, RJ",
            "ibge": 3304557,
            "cidade": "Rio de Janeiro",
            "uf": "RJ",
            "regiao": "Sudeste",
            "cep": "21910-295",
            "latitude": -22.8047,
            "longitude": -43.1821
        },
        {
            "unidade": 217,
            "nomeUnidade": "AG 0217 INHANGA, RJ",
            "sr": 2589,
            "nomeSr": "SR 2589 RIO CAPITAL, RJ",
            "ibge": 3304557,
            "cidade": "Rio de Janeiro",
            "uf": "RJ",
            "regiao": "Sudeste",
            "cep": "22020-002",
            "latitude": -22.967644419489165,
            "longitude": -43.18211667856393
        },
        {
            "unidade": 218,
            "nomeUnidade": "AG 0218 LEBLON, RJ",
            "sr": 2589,
            "nomeSr": "SR 2589 RIO CAPITAL, RJ",
            "ibge": 3304557,
            "cidade": "Rio de Janeiro",
            "uf": "RJ",
            "regiao": "Sudeste",
            "cep": "22430-210",
            "latitude": -22.984329033636442,
            "longitude": -43.2221149201922
        },
        {
            "unidade": 219,
            "nomeUnidade": "AG 0219 MADUREIRA, RJ",
            "sr": 2607,
            "nomeSr": "SR 2607 REGIAO METROPOLITANA, RJ",
            "ibge": 3304557,
            "cidade": "Rio de Janeiro",
            "uf": "RJ",
            "regiao": "Sudeste",
            "cep": "21350-180",
            "latitude": -22.875254329032668,
            "longitude": -43.33647956318366
        },
        {
            "unidade": 220,
            "nomeUnidade": "AG 0220 BAIRRO JAGUARIBE, PB",
            "sr": 2641,
            "nomeSr": "SR 2641 JOAO PESSOA, PB",
            "ibge": 2507507,
            "cidade": "João Pessoa",
            "uf": "PB",
            "regiao": "Nordeste",
            "cep": "58015-510",
            "latitude": -7.134762495071443,
            "longitude": -34.87764424600094
        },
        {
            "unidade": 221,
            "nomeUnidade": "AG 0221 MEIER, RJ",
            "sr": 2589,
            "nomeSr": "SR 2589 RIO CAPITAL, RJ",
            "ibge": 3304557,
            "cidade": "Rio de Janeiro",
            "uf": "RJ",
            "regiao": "Sudeste",
            "cep": "20720-012",
            "latitude": -22.901766188797037,
            "longitude": -43.27884910559522
        },
        {
            "unidade": 222,
            "nomeUnidade": "AG 0222 PALACIO DA FAZENDA, RJ",
            "sr": 2589,
            "nomeSr": "SR 2589 RIO CAPITAL, RJ",
            "ibge": 3304557,
            "cidade": "Rio de Janeiro",
            "uf": "RJ",
            "regiao": "Sudeste",
            "cep": "20020-010",
            "latitude": -22.90725118909734,
            "longitude": -43.173305366894645
        },
        {
            "unidade": 223,
            "nomeUnidade": "AG 0223 NOVA SETE DE SETEMBRO, SP",
            "sr": 4012,
            "nomeSr": "SR 4012 SAO PAULO LESTE, SP",
            "ibge": 3518800,
            "cidade": "Guarulhos",
            "uf": "SP",
            "regiao": "Sudeste",
            "cep": "07011-020",
            "latitude": -23.469273623068872,
            "longitude": -46.530331060538224
        },
        {
            "unidade": 224,
            "nomeUnidade": "AG 0224 PENHA, RJ",
            "sr": 2589,
            "nomeSr": "SR 2589 RIO CAPITAL, RJ",
            "ibge": 3304557,
            "cidade": "Rio de Janeiro",
            "uf": "RJ",
            "regiao": "Sudeste",
            "cep": "21070-032",
            "latitude": -22.841086278445804,
            "longitude": -43.276910731348146
        },
        {
            "unidade": 225,
            "nomeUnidade": "AG 0225 PILARES, RJ",
            "sr": 2589,
            "nomeSr": "SR 2589 RIO CAPITAL, RJ",
            "ibge": 3304557,
            "cidade": "Rio de Janeiro",
            "uf": "RJ",
            "regiao": "Sudeste",
            "cep": "20771-001",
            "latitude": -22.887222147145216,
            "longitude": -43.28749732032042
        },
        {
            "unidade": 226,
            "nomeUnidade": "AG 0226 URCA, RJ",
            "sr": 2589,
            "nomeSr": "SR 2589 RIO CAPITAL, RJ",
            "ibge": 3304557,
            "cidade": "Rio de Janeiro",
            "uf": "RJ",
            "regiao": "Sudeste",
            "cep": "22291-060",
            "latitude": -22.948399559636883,
            "longitude": -43.16442323105801
        },
        {
            "unidade": 227,
            "nomeUnidade": "AG 0227 SAO LUIS REI DE FRANCA, MA",
            "sr": 2654,
            "nomeSr": "SR 2654 SAO LUIS, MA",
            "ibge": 2111300,
            "cidade": "São Luís",
            "uf": "MA",
            "regiao": "Nordeste",
            "cep": "65067-205",
            "latitude": -2.5130191824305737,
            "longitude": -44.22525708749105
        },
        {
            "unidade": 228,
            "nomeUnidade": "AG 0228 SAENS PENA, RJ",
            "sr": 2589,
            "nomeSr": "SR 2589 RIO CAPITAL, RJ",
            "ibge": 3304557,
            "cidade": "Rio de Janeiro",
            "uf": "RJ",
            "regiao": "Sudeste",
            "cep": "20520-054",
            "latitude": -22.92312017000618,
            "longitude": -43.23150472045596
        },
        {
            "unidade": 229,
            "nomeUnidade": "AG 0229 SANTA CRUZ, RJ",
            "sr": 2607,
            "nomeSr": "SR 2607 REGIAO METROPOLITANA, RJ",
            "ibge": 3304557,
            "cidade": "Rio de Janeiro",
            "uf": "RJ",
            "regiao": "Sudeste",
            "cep": "23510-006",
            "latitude": -22.92014233302335,
            "longitude": -43.68122754095666
        },
        {
            "unidade": 230,
            "nomeUnidade": "AG 0230 VILA ESPANHOLA, SP",
            "sr": 2576,
            "nomeSr": "SR 2576 SAO PAULO NORTE, SP",
            "ibge": 3550308,
            "cidade": "São Paulo",
            "uf": "SP",
            "regiao": "Sudeste",
            "cep": "02721-200",
            "latitude": -23.489037194167924,
            "longitude": -46.675491773487515
        },
        {
            "unidade": 231,
            "nomeUnidade": "AG 0231 14 BIS, RJ",
            "sr": 2589,
            "nomeSr": "SR 2589 RIO CAPITAL, RJ",
            "ibge": 3304557,
            "cidade": "Rio de Janeiro",
            "uf": "RJ",
            "regiao": "Sudeste",
            "cep": "20020-080",
            "latitude": -22.90991993210456,
            "longitude": -43.16902355952059
        },
        {
            "unidade": 232,
            "nomeUnidade": "AG 0232 SAO CRISTOVAO, RJ",
            "sr": 2589,
            "nomeSr": "SR 2589 RIO CAPITAL, RJ",
            "ibge": 3304557,
            "cidade": "Rio de Janeiro",
            "uf": "RJ",
            "regiao": "Sudeste",
            "cep": "20940-001",
            "latitude": -22.9018236,
            "longitude": -43.2171174
        },
        {
            "unidade": 233,
            "nomeUnidade": "AG 0233 VILA ISABEL, RJ",
            "sr": 2589,
            "nomeSr": "SR 2589 RIO CAPITAL, RJ",
            "ibge": 3304557,
            "cidade": "Rio de Janeiro",
            "uf": "RJ",
            "regiao": "Sudeste",
            "cep": "20551-031",
            "latitude": -22.91544344037868,
            "longitude": -43.24489927270384
        },
        {
            "unidade": 235,
            "nomeUnidade": "AG 0235 SE, SP",
            "sr": 2574,
            "nomeSr": "SR 2574 SAO PAULO CENTRO, SP",
            "ibge": 3550308,
            "cidade": "São Paulo",
            "uf": "SP",
            "regiao": "Sudeste",
            "cep": "01001-001",
            "latitude": -23.549151255603178,
            "longitude": -46.63296614838578
        },
        {
            "unidade": 236,
            "nomeUnidade": "AG 0236 ALTO DA MOOCA, SP",
            "sr": 2574,
            "nomeSr": "SR 2574 SAO PAULO CENTRO, SP",
            "ibge": 3550308,
            "cidade": "São Paulo",
            "uf": "SP",
            "regiao": "Sudeste",
            "cep": "03180-001",
            "latitude": -23.554660358987874,
            "longitude": -46.58388958843571
        },
        {
            "unidade": 237,
            "nomeUnidade": "AG 0237 PORTO GERAL, SP",
            "sr": 2574,
            "nomeSr": "SR 2574 SAO PAULO CENTRO, SP",
            "ibge": 3550308,
            "cidade": "São Paulo",
            "uf": "SP",
            "regiao": "Sudeste",
            "cep": "01014-000",
            "latitude": -23.544965312781272,
            "longitude": -46.63364801367216
        },
        {
            "unidade": 238,
            "nomeUnidade": "AG 0238 AV PAULISTA, SP",
            "sr": 2574,
            "nomeSr": "SR 2574 SAO PAULO CENTRO, SP",
            "ibge": 3550308,
            "cidade": "São Paulo",
            "uf": "SP",
            "regiao": "Sudeste",
            "cep": "01310-918",
            "latitude": -23.5613796,
            "longitude": -46.65649765
        },
        {
            "unidade": 239,
            "nomeUnidade": "AG 0239 AUGUSTA, SP",
            "sr": 2574,
            "nomeSr": "SR 2574 SAO PAULO CENTRO, SP",
            "ibge": 3550308,
            "cidade": "São Paulo",
            "uf": "SP",
            "regiao": "Sudeste",
            "cep": "01412-100",
            "latitude": -23.563121,
            "longitude": -46.6656847
        },
        {
            "unidade": 240,
            "nomeUnidade": "AG 0240 BELA VISTA, SP",
            "sr": 2574,
            "nomeSr": "SR 2574 SAO PAULO CENTRO, SP",
            "ibge": 3550308,
            "cidade": "São Paulo",
            "uf": "SP",
            "regiao": "Sudeste",
            "cep": "01318-001",
            "latitude": -23.5576361999999,
            "longitude": -46.6413054
        },
        {
            "unidade": 241,
            "nomeUnidade": "AG 0241 BELENZINHO, SP",
            "sr": 2574,
            "nomeSr": "SR 2574 SAO PAULO CENTRO, SP",
            "ibge": 3550308,
            "cidade": "São Paulo",
            "uf": "SP",
            "regiao": "Sudeste",
            "cep": "03057-040",
            "latitude": -23.541555072990526,
            "longitude": -46.59420676354274
        },
        {
            "unidade": 242,
            "nomeUnidade": "AG 0242 BRAS, SP",
            "sr": 2574,
            "nomeSr": "SR 2574 SAO PAULO CENTRO, SP",
            "ibge": 3550308,
            "cidade": "São Paulo",
            "uf": "SP",
            "regiao": "Sudeste",
            "cep": "03012-010",
            "latitude": -23.54150982057649,
            "longitude": -46.617206037428886
        },
        {
            "unidade": 243,
            "nomeUnidade": "AG 0243 CAMBUCI, SP",
            "sr": 2574,
            "nomeSr": "SR 2574 SAO PAULO CENTRO, SP",
            "ibge": 3550308,
            "cidade": "São Paulo",
            "uf": "SP",
            "regiao": "Sudeste",
            "cep": "01523-000",
            "latitude": -23.5638466999999,
            "longitude": -46.6193790999999
        },